API Well Number,Production Information,Formation Tops,Casing and Cementing,Hole Number,Well Name,Company Name,Well Type,Well Status,Objective Formation,Producing Formation,County,Town,Map Quadrangle,Quad Section Code,Field,Status Date,Permit Application Date,Permit Issued Date,Spud/Start Drilling Date,Total Depth Date,Well Completion Date,Plugging & Abandonment Date,Confidential Expiration Date,Confid. Period Type,Subject to Financial Security,Well Orientation,NYSDEC Region,State Lease,Proposed Total Depth,Surface Longitude,Surface Latitude,Bottom Hole Longitude,Bottom Hole Latitude,True Vertical Depth,Bottom Hole Total Measured Depth,Kickoff Depth,Drilled Depth,Proposed Well Type,Spacing,Spacing Acres,Integration,Hearing Date,Last Modified Date
31-003-00005-00-00 ,No,Yes,No,5,Hilligass SC-473,National Fuel Gas Supply Corporation,Not Listed,Plugged and Abandoned,Oriskany,Not Applicable,Allegany,Willing,Whitesville,D,Beech Hill-Independence,2/25/1979,6/13/1978,6/19/1978,2/14/1979,2/25/1979,,2/25/1979,,Pre-1989 Well (N/A),0,Vertical,9,NA,0,-77.86255,42.04208,-77.86255,42.04208,4825,4825,0,4825,Not Listed,,,,,8/4/2017
31-003-00006-00-00 ,No,Yes,No,6,Tait EC-479,National Fuel Gas Supply Corporation,Storage,Active,Not Applicable,Oriskany,Allegany,Willing,Wellsville South,I,Beech Hill,12/31/2009,,2/1/1978,2/28/1978,4/15/1978,8/29/1980,,,Pre-1989 Well (N/A),0,Vertical,9,NA,0,-77.87785,42.03843,-77.87785,42.03843,5030,5030,0,5030,Not Listed,,,,,12/26/2018
31-003-00009-00-00 ,No,Yes,No,9,Wilson (NFGSC) EC-458,National Fuel Gas Supply Corporation,Storage,Active,Not Applicable,Oriskany,Allegany,Willing,Whitesville,D,Beech Hill,12/31/2009,,5/1/1977,5/25/1977,6/11/1977,6/8/1980,,,Pre-1989 Well (N/A),1,Vertical,9,NA,0,-77.8408,42.04861,-77.8408,42.04861,4980,4980,0,4980,Not Listed,,,,,4/26/2011
31-003-00010-00-00 ,No,Yes,No,10,Stout (Clark) EC-463,National Fuel Gas Supply Corporation,Storage,Plugged and Abandoned,Oriskany,Oriskany,Allegany,Willing,Whitesville,D,Beech Hill,11/8/2023,5/5/1977,5/13/1977,5/25/1977,6/12/1977,8/8/1980,11/8/2023,,Pre-1989 Well (N/A),1,Vertical,9,NA,4975,-77.84863,42.04504,-77.84863,42.04504,4959,4959,0,4959,Not Listed,,,,,11/9/2023
31-003-00012-00-00 ,No,Yes,No,12,Billings EC-542,National Fuel Gas Supply Corporation,Monitoring Storage,Active,Not Applicable,Oriskany,Allegany,Independence,Whitesville,E,Beech Hill,12/31/2009,,7/1/1977,11/8/1977,11/28/1977,9/6/1938,,,Pre-1989 Well (N/A),1,Vertical,9,NA,0,-77.81522,42.0603,-77.81522,42.0603,5008,5008,0,5008,Not Listed,Exempt - not an oil or gas well,,,,4/26/2011
31-003-00013-00-00 ,No,Yes,No,13,Forsythe Farms Corp (McLean) EC-541,National Fuel Gas Supply Corporation,Monitoring Storage,Active,Not Applicable,Oriskany,Allegany,Independence,Whitesville,E,Beech Hill,12/31/2009,,10/1/1977,11/30/1939,,2/19/1940,,,Pre-1989 Well (N/A),0,Vertical,9,NA,0,-77.82258,42.06068,-77.82258,42.06068,4945,4945,0,4945,Not Listed,Exempt - not an oil or gas well,,,,4/26/2011
31-003-00014-00-00 ,No,Yes,No,14,Clark EC-444,National Fuel Gas Supply Corporation,Monitoring Storage,Active,Not Applicable,Oriskany,Allegany,Independence,Whitesville,C,West Independence,12/31/2009,,7/1/1976,7/12/1976,8/26/1976,5/24/1977,,,Pre-1989 Well (N/A),0,Vertical,9,NA,0,-77.76509,42.09336,-77.76509,42.09336,5141,5141,0,5141,Not Listed,Exempt - not an oil or gas well,,,,4/26/2011
31-003-00015-00-00 ,No,Yes,No,15,Barney H. (Livermore) 454,Penn-York Energy Corp.,Not Listed,Plugged and Abandoned,Not Applicable,Not Applicable,Allegany,Independence,Whitesville,E,Beech Hill-Independence,11/10/1976,,9/1/1976,10/27/1938,,12/22/1938,11/10/1976,,Pre-1989 Well (N/A),0,Vertical,9,NA,0,-77.79221,42.07804,-77.79221,42.07804,4754,4754,0,4754,Not Listed,,,,,3/10/1999
31-003-00016-00-00 ,No,Yes,No,16,Barney (Livermore) EC-452,National Fuel Gas Supply Corporation,Monitoring Storage,Active,Not Applicable,Oriskany,Allegany,Independence,Whitesville,E,West Independence,12/31/2009,,9/1/1976,10/6/1976,10/19/1976,5/26/1977,,,Pre-1989 Well (N/A),1,Vertical,9,NA,0,-77.80122,42.07888,-77.80122,42.07888,4853,4853,0,4853,Not Listed,Exempt - not an oil or gas well,,,,4/26/2011
31-003-00017-00-00 ,No,Yes,No,17,Newton C (Heselton) EC-446,National Fuel Gas Supply Corporation,Storage,Active,Not Applicable,Oriskany,Allegany,Independence,Whitesville,C,West Independence,12/31/2009,,8/1/1976,8/30/1976,9/12/1976,5/25/1977,,,Pre-1989 Well (N/A),1,Vertical,9,NA,0,-77.77953,42.09153,-77.77953,42.09153,4939,4939,0,4939,Not Listed,,,,,4/26/2011
31-003-00018-00-00 ,No,Yes,No,18,Nye SC-451Nye EC-451,National Fuel Gas Supply Corporation,Storage,Active,Not Applicable,Oriskany,Allegany,Independence,Whitesville,E,West Independence,12/31/2009,8/30/1976,9/2/1976,9/18/1976,9/30/1976,6/3/1977,,,Pre-1989 Well (N/A),0,Vertical,9,NA,0,-77.80669,42.08182,-77.80669,42.08182,4705,4705,0,4705,Not Listed,,,,,6/23/2016
31-003-00019-00-00 ,No,Yes,No,19,Wilson (NFGSC) EC-449,National Fuel Gas Supply Corporation,Storage,Active,Not Applicable,Oriskany,Allegany,Independence,Whitesville,E,West Independence,12/31/2009,7/5/1976,9/1/1976,9/8/1976,9/22/1976,6/2/1977,,,Pre-1989 Well (N/A),1,Vertical,9,NA,4715,-77.80069,42.08187,-77.80069,42.08187,4705,4705,0,4705,Not Listed,,,,,4/26/2011
31-003-00021-00-00 ,No,Yes,No,21,Cornelius (Crandell) EC-432,National Fuel Gas Supply Corporation,Monitoring Storage,Active,Not Applicable,Oriskany,Allegany,Independence,Whitesville,C,East Independence,12/31/2009,8/11/1971,8/17/1971,10/5/1971,11/14/1971,11/14/1971,,,Pre-1989 Well (N/A),0,Vertical,9,NA,0,-77.76623,42.10252,-77.76623,42.10252,5118,5118,0,5118,Not Listed,Exempt - not an oil or gas well,,,,4/26/2011
31-003-00022-00-00 ,No,Yes,Yes,22,Martin (Lafever) EC-433,National Fuel Gas Supply Corporation,Storage,Active,Not Applicable,Oriskany,Allegany,Andover,Whitesville,C,East Independence,12/31/2009,8/11/1971,8/17/1971,9/8/1971,9/22/1971,2/14/2019,,,Pre-1989 Well (N/A),0,Vertical,9,NA,4940,-77.76705,42.10531,-77.76705,42.10531,5030,5030,0,5030,Not Listed,,,,,8/26/2021
31-003-00023-00-00 ,No,Yes,No,23,Hess EC-430,National Fuel Gas Supply Corporation,Storage,Active,Not Applicable,Oriskany,Allegany,Independence,Whitesville,C,East Independence,12/31/2009,,8/17/1971,10/10/1971,10/28/1971,3/14/1972,,,Pre-1989 Well (N/A),0,Vertical,9,NA,0,-77.77591,42.10261,-77.77591,42.10261,4922,4922,0,4922,Not Listed,,,,,4/26/2011
31-003-00044-00-00 ,No,Yes,No,44,Stallknecht (Graves) EC-485,National Fuel Gas Supply Corporation,Monitoring Storage,Active,Not Applicable,Oriskany,Allegany,Independence,Whitesville,D,Beech Hill,12/31/2009,,9/1/1977,8/13/1947,,12/4/1947,,,Pre-1989 Well (N/A),0,Vertical,9,NA,0,-77.83438,42.04641,-77.83438,42.04641,5219,5219,0,5219,Not Listed,Exempt - not an oil or gas well,,,,4/26/2011
31-003-00084-00-00 ,No,Yes,No,84,Greene EC-447,National Fuel Gas Supply Corporation,Storage,Active,Not Applicable,Oriskany,Allegany,Independence,Whitesville,C,West Independence,12/31/2009,,9/1/1976,9/12/1976,9/30/1976,5/31/1977,,,Pre-1989 Well (N/A),0,Vertical,9,NA,0,-77.79157,42.0856,-77.79157,42.0856,4820,4820,0,4820,Not Listed,,,,,4/26/2011
31-003-00256-00-00 ,No,Yes,No,256,Scott (Bassett) EC-455,National Fuel Gas Supply Corporation,Monitoring Storage,Active,Not Applicable,Oriskany,Allegany,Independence,Whitesville,F,Beech Hill,12/31/2009,,9/1/1976,10/3/1976,10/17/1976,6/8/1977,,,Pre-1989 Well (N/A),0,Vertical,9,NA,0,-77.79063,42.0781,-77.79063,42.0781,4862,4862,0,4862,Not Listed,Exempt - not an oil or gas well,,,,4/26/2011
31-003-00393-00-00 ,No,Yes,No,393,Barney EC-453,National Fuel Gas Supply Corporation,Not Listed,Plugged and Abandoned,Not Applicable,Not Applicable,Allegany,Independence,Whitesville,E,Beech Hill-Independence,10/14/1976,,9/3/1976,,,11/6/1946,10/14/1976,,Pre-1989 Well (N/A),0,Vertical,9,NA,0,-77.79528,42.07804,-77.79528,42.07804,4846,4846,0,4846,Not Listed,,,,,7/28/1999
31-003-00397-00-00 ,No,Yes,No,397,Clark J EC-457,National Fuel Gas Supply Corporation,Storage,Active,Not Applicable,Oriskany,Allegany,Independence,Whitesville,D,Beech Hill,12/31/2009,,10/1/1977,,,9/22/1944,,,Pre-1989 Well (N/A),0,Vertical,9,NA,0,-77.83486,42.05379,-77.83486,42.05379,4878,4878,0,4878,Not Listed,,,,,4/26/2011
31-003-00398-00-00 ,No,Yes,No,398,Grastorf (Burrows) EC-539,National Fuel Gas Supply Corporation,Monitoring Storage,Active,Not Applicable,Oriskany,Allegany,Willing,Wellsville South,F,Beech Hill,12/31/2009,,6/13/1977,9/16/1977,9/29/1977,9/17/1980,,,Pre-1989 Well (N/A),0,Vertical,9,NA,0,-77.89275,42.04428,-77.89275,42.04428,4975,4975,0,4975,Not Listed,Exempt - not an oil or gas well,,,,4/26/2011
31-003-00406-00-00 ,No,Yes,No,406,Martin (Lafever) EC-434,National Fuel Gas Supply Corporation,Storage,Active,Not Applicable,Oriskany,Allegany,Andover,Whitesville,C,East Independence,12/31/2009,8/11/1971,8/17/1971,9/22/1971,10/1/1971,2/14/1941,,,Pre-1989 Well (N/A),0,Vertical,9,NA,0,-77.76325,42.10687,-77.76325,42.10687,4908,4908,0,4908,Not Listed,,,,,4/26/2011
31-003-00436-00-00 ,No,Yes,No,436,Shear F (Shear Wm) EC-474,National Fuel Gas Supply Corporation,Storage,Active,Not Applicable,Oriskany,Allegany,Willing,Whitesville,D,Beech Hill,12/31/2009,,6/1/1977,,,1/12/1941,,,Pre-1989 Well (N/A),1,Vertical,9,NA,0,-77.86321,42.04208,-77.86321,42.04208,4821,4821,0,4821,Not Listed,,,,,4/26/2011
31-003-00440-00-00 ,No,Yes,No,440,Fortner (Porter B) EC-465,National Fuel Gas Supply Corporation,Storage,Active,Not Applicable,Oriskany,Allegany,Willing,Whitesville,D,Beech Hill,12/31/2009,,6/1/1977,,,2/16/1940,,,Pre-1989 Well (N/A),0,Vertical,9,NA,0,-77.85481,42.04689,-77.85481,42.04689,4948,4948,0,4948,Not Listed,,,,,12/18/2019
31-003-00442-00-00 ,No,Yes,No,442,Cornelius F EC-464,National Fuel Gas Supply Corporation,Storage,Active,Oriskany,Oriskany,Allegany,Willing,Whitesville,D,Beech Hill,12/31/2009,2/3/1978,2/7/1978,2/13/1978,2/24/1978,8/6/1980,,,Pre-1989 Well (N/A),1,Vertical,9,NA,5040,-77.85145,42.04836,-77.85145,42.04836,5045,5045,0,5045,Not Listed,,,,,4/26/2011
31-003-01002-00-00 ,No,Yes,No,1002,Stout EC-480,National Fuel Gas Supply Corporation,Storage,Active,Not Applicable,Oriskany,Allegany,Willing,Wellsville South,I,Beech Hill,12/31/2009,,11/1/1977,8/30/1950,,1/15/1951,,,Pre-1989 Well (N/A),0,Vertical,9,NA,0,-77.8796,42.03587,-77.8796,42.03587,4889,4889,0,4889,Not Listed,,,,,4/26/2011
31-003-02317-00-00 ,No,Yes,No,2317,Green EC-448,National Fuel Gas Supply Corporation,Storage,Active,Not Applicable,Oriskany,Allegany,Independence,Whitesville,B,West Independence,12/31/2009,8/5/1976,8/11/1976,9/3/1976,9/16/1976,6/1/1977,,,Pre-1989 Well (N/A),0,Vertical,9,NA,4845,-77.79495,42.08402,-77.79495,42.08402,4828,4828,0,4828,Not Listed,,,,,4/26/2011
31-003-04657-00-00 ,Yes,Yes,No,4657,012-Godown,Yahn & Yahn Inc.,Enhanced Oil Recovery - Injection,Plugged and Abandoned,Not Applicable,Fulmer Valley,Allegany,Independence,Rexville,D,Beech Hill-Independence,9/30/2005,10/21/1975,10/24/1975,9/1/1964,9/30/1964,11/13/1975,9/30/2005,,Pre-1989 Well (N/A),0,Vertical,9,NA,0,-77.74837,42.0806,-77.74837,42.0806,1181,1181,0,1181,Not Listed,,,,,10/19/2005
31-003-04673-00-00 ,No,Yes,No,4673,Sounder (Ludden) EC-486,National Fuel Gas Supply Corporation,Monitoring Storage,Active,Not Applicable,Oriskany,Allegany,Willing,Whitesville,G,Beech Hill,12/31/2009,,1/1/1978,11/12/1964,,1/17/1965,,,Pre-1989 Well (N/A),0,Vertical,9,NA,0,-77.84651,42.04022,-77.84651,42.04022,5008,5008,0,5008,Not Listed,Exempt - not an oil or gas well,,,,4/26/2011
31-003-04825-00-00 ,Yes,Yes,No,4825,2 L. Potter,Outman Joshua J.,Oil Development,Inactive,Not Applicable,Fulmer Valley,Allegany,Independence,Whitesville,F,Beech Hill-Independence,12/31/2024,,1/1/1966,,,,,,Pre-1989 Well (N/A),0,Vertical,9,NA,0,-77.77203,42.08197,-77.77203,42.08197,2071,2071,0,2071,Not Listed,,,,,7/8/2025
31-003-04958-00-00 ,Yes,Yes,Yes,4958,Slade Lot 29 F-23,Sandstone Oil & Gas Development LLC,Oil Development,Inactive,Richburg,Richburg,Allegany,Genesee,Bolivar,D,Richburg,12/31/2024,,6/29/1966,7/15/1966,8/2/1966,8/4/1966,,,Pre-1989 Well (N/A),0,Vertical,9,NA,1300,-78.23945,42.04583,-78.23945,42.04583,1312,1312,0,1312,Oil Development,,,,,7/8/2025
31-003-04959-00-00 ,Yes,Yes,Yes,4959,Slade Lot 29 B-11,Sandstone Oil & Gas Development LLC,Enhanced Oil Recovery - Injection,Inactive,Richburg,Richburg,Allegany,Genesee,Bolivar,D,Richburg,,,6/29/1966,8/7/1966,8/29/1966,8/31/1966,,,Pre-1989 Well (N/A),0,Vertical,9,NA,1300,-78.241888,42.048035,-78.241888,42.048035,1335,1335,0,1335,Not Listed,,,,,12/13/2019
31-003-04960-00-00 ,Yes,Yes,Yes,4960,Slade Lot 29 G-2,Sandstone Oil & Gas Development LLC,Enhanced Oil Recovery - Injection,Inactive,Richburg,Richburg,Allegany,Genesee,Bolivar,D,Richburg,,,6/29/1966,9/3/1966,9/26/1966,9/29/1966,,,Pre-1989 Well (N/A),0,Vertical,9,NA,1200,-78.23846,42.04528,-78.23846,42.04528,1184,1416,0,1416,Not Listed,,,,,12/13/2019
31-003-04961-00-00 ,Yes,Yes,Yes,4961,Slade Lot 29 H-3,Sandstone Oil & Gas Development LLC,Oil Development,Inactive,Richburg,Richburg,Allegany,Genesee,Bolivar,D,Richburg,12/31/2024,,6/29/1966,10/1/1966,10/21/1966,11/4/1966,,,Pre-1989 Well (N/A),0,Vertical,9,NA,0,-78.23768,42.0438,-78.23768,42.0438,1183,1183,0,1183,Not Listed,,,,,7/8/2025
31-003-04962-00-00 ,Yes,Yes,No,4962,Slade Lot 29 E-45,Sandstone Oil & Gas Development LLC,Oil Development,Inactive,Richburg,Richburg,Allegany,Genesee,Bolivar,D,Richburg,,1/4/1967,1/19/1967,12/18/1966,1/4/1967,4/6/1967,,,Pre-1989 Well (N/A),0,Vertical,9,NA,0,-78.235768,42.04568,-78.235768,42.04568,1226,1226,0,1226,Not Listed,,,,,8/15/2023
31-003-04963-00-00 ,Yes,Yes,No,4963,Slade Lot 29 C-45,Sandstone Oil & Gas Development LLC,Oil Development,Inactive,Richburg,Richburg,Allegany,Genesee,Bolivar,D,Richburg,12/31/2024,,6/29/1966,11/3/1966,12/5/1966,12/7/1966,,,Pre-1989 Well (N/A),0,Vertical,9,NA,1330,-78.2358,42.04717,-78.2358,42.04717,1327,1327,0,1327,Oil Development,,,,,7/8/2025
31-003-05025-00-00 ,Yes,Yes,No,5025,Lot 91 29-91,Bradley Producing Corp.,Oil Development,Unknown,Richburg,Richburg,Allegany,Alma,Allentown,I,Richburg,8/23/2017,10/24/1966,10/27/1966,10/24/1966,11/17/1966,11/30/1966,,,Pre-1989 Well (N/A),0,Vertical,9,NA,1800,-78.01937,42.0377,-78.01937,42.0377,0,0,0,0,Not Listed,,,,,8/1/2018
31-003-05036-00-00 ,No,Yes,No,5036,Stillman 02,The Richardson Petroleum Corporation,Oil Development,Plugged and Abandoned,Not Applicable,Fulmer Valley,Allegany,Independence,Rexville,D,Beech Hill-Independence,11/8/1994,11/11/1966,11/16/1966,11/18/1966,11/28/1966,12/20/1966,11/8/1994,,Pre-1989 Well (N/A),0,Vertical,9,NA,1240,-77.74844,42.07653,-77.74844,42.07653,1202,1202,0,1202,Not Listed,,,,,10/16/1995
31-003-05037-00-00 ,Yes,Yes,Yes,5037,Stillman 03,The Richardson Petroleum Corporation,Oil Development,Inactive,Fulmer Valley,Fulmer Valley,Allegany,Independence,Whitesville,F,Beech Hill-Independence,12/31/2023,,11/14/1966,12/1/1966,12/31/1966,12/31/1966,,,Pre-1989 Well (N/A),0,Vertical,9,NA,1250,-77.75185,42.07642,-77.75185,42.07642,1247,1247,0,1247,Oil Development,,,,,12/5/2025
31-003-05045-00-00 ,Yes,Yes,Yes,5045,Baker; Gerald 1,Baker Todd,Gas Development,Plugged and Abandoned,Not Applicable,Upper Devonian,Allegany,Alfred,Andover,B,Not Applicable,3/16/2013,11/15/1966,11/21/1966,,,,3/16/2013,,Pre-1989 Well (N/A),0,Vertical,9,NA,800,-77.80146,42.23357,-77.80146,42.23357,729,729,0,729,Not Listed,,,,,3/27/2014
31-003-05067-00-00 ,No,Yes,No,5067,Vincent 172,Ebenezer Oil Co. Inc.,Oil Development,Plugged and Abandoned,Not Applicable,Richburg,Allegany,Scio,Allentown,B,Richburg,4/2/1992,12/28/1966,12/29/1966,1/3/1967,2/3/1967,2/3/1967,4/2/1992,,Pre-1989 Well (N/A),0,Vertical,9,NA,1400,-78.05789,42.09939,-78.05789,42.09939,1403,1403,0,1403,Not Listed,,,,,1/7/1993
31-003-05079-00-00 ,Yes,Yes,No,5079,Lot 78 17,Unknown,Not Listed,Unknown,Not Applicable,Not Applicable,Allegany,Alma,,,Not Applicable,,11/22/1966,1/20/1967,,,,,,Pre-1989 Well (N/A),0,Vertical,9,NA,0,0,0,0,0,0,0,0,0,Not Listed,,,,,12/20/2019
31-003-05080-00-00 ,No,Yes,No,5080,Sidehill 36,Ebenezer Oil Co. Inc.,Oil Development,Plugged and Abandoned,Not Applicable,Richburg,Allegany,Alma,Allentown,E,Richburg,9/28/1979,1/25/1967,1/27/1967,,,,9/28/1979,,Pre-1989 Well (N/A),0,Vertical,9,NA,1325,-78.05255,42.04193,-78.05255,42.04193,1321,1321,0,1321,Not Listed,,,,,8/15/1995
31-003-05081-00-00 ,No,Yes,No,5081,Vincent 173,Ebenezer Oil Co. Inc.,Oil Development,Plugged and Abandoned,Richburg,Richburg,Allegany,Scio,Allentown,B,Richburg,8/23/1983,1/25/1967,1/27/1967,2/7/1967,3/17/1967,3/17/1967,8/23/1983,,Pre-1989 Well (N/A),0,Vertical,9,NA,1500,-78.0628,42.09945,-78.0628,42.09945,1400,1400,0,1400,Not Listed,,,,,10/18/1994
31-003-05082-00-00 ,No,Yes,No,5082,Lot 55 5055,K-Arcy Corp.,Oil Development,Plugged and Abandoned,Richburg,Richburg,Allegany,Alma,Allentown,I,Richburg,11/21/1985,1/31/1967,2/6/1967,3/2/1967,4/20/1967,4/28/1967,11/21/1985,,Pre-1989 Well (N/A),0,Vertical,9,NA,1700,-78.01358,42.02292,-78.01358,42.02292,1066,1066,0,1066,Not Listed,,,,,5/31/1989
31-003-05102-00-00 ,No,Yes,No,5102,Vincent 174,Ebenezer Oil Co. Inc.,Oil Development,Plugged and Abandoned,Richburg,Richburg,Allegany,Scio,Allentown,B,Richburg,8/2/1983,3/10/1967,3/14/1967,3/19/1967,4/14/1967,4/14/1967,8/2/1983,,Pre-1989 Well (N/A),0,Vertical,9,NA,1425,-78.06361,42.09949,-78.06361,42.09949,1438,1438,0,1438,Not Listed,,,,,10/18/1994
31-003-05103-00-00 ,No,Yes,No,5103,Lot 78 2678,K-Arcy Corp.,Oil Development,Plugged and Abandoned,Richburg,Richburg,Allegany,Alma,Allentown,I,Richburg,5/8/1987,3/10/1967,3/14/1967,3/30/1967,5/10/1967,5/16/1967,5/8/1987,,Pre-1989 Well (N/A),0,Vertical,9,NA,1700,-78.02483,42.0323,-78.02483,42.0323,1684,1684,0,1684,Not Listed,,,,,5/31/1989
31-003-05131-00-00 ,Yes,Yes,No,5131,Gowdy 67,Haskins Oil Co.,Oil Development,Unknown Located,Upper Devonian,Richburg,Allegany,Scio,Allentown,C,Richburg,4/1/2019,4/19/1967,4/21/1967,4/21/1967,5/3/1967,5/5/1967,,,Pre-1989 Well (N/A),0,Vertical,9,NA,1400,-78.02001,42.09054,-78.02001,42.09054,1251,1251,0,1251,Not Listed,,,,,4/9/2019
31-003-05132-00-00 ,No,Yes,No,5132,New Vincent 36,Ebenezer Oil Co. Inc.,Oil Development,Plugged and Abandoned,Not Applicable,Richburg,Allegany,Scio,Allentown,B,Richburg,4/6/1992,4/18/1967,4/23/1967,4/24/1967,5/18/1967,5/19/1967,4/6/1992,,Pre-1989 Well (N/A),0,Vertical,9,NA,0,-78.06453,42.09949,-78.06453,42.09949,1443,1443,0,1443,Not Listed,,,,,12/21/1993
31-003-05205-00-00 ,Yes,Yes,No,5205,Stoney B E1 1,Bradley Producing Corp.,Oil Development,Plugged and Abandoned,Richburg,Richburg,Allegany,Bolivar,Allentown,G,Richburg,10/1/1968,5/5/1967,5/9/1967,5/19/1967,6/11/1967,6/21/1967,10/1/1968,,Pre-1989 Well (N/A),0,Vertical,9,NA,1650,-78.08786,42.03365,-78.08786,42.03365,1919,1919,0,1919,Not Listed,,,,,3/31/2015
31-003-05206-00-00 ,Yes,Yes,No,5206,Gowdy 68,Haskins Oil Co.,Oil Development,Unknown Located,Not Applicable,Richburg,Allegany,Scio,Allentown,C,Richburg,4/1/2019,5/5/1967,5/9/1967,5/8/1967,5/17/1967,5/22/1967,,,Pre-1989 Well (N/A),0,Vertical,9,NA,1250,-78.01968,42.09197,-78.01968,42.09197,1240,1240,0,1240,Not Listed,,,,,11/27/2023
31-003-05221-00-00 ,No,Yes,No,5221,New Vincent 37,Ebenezer Oil Co. Inc.,Not Listed,Plugged and Abandoned,Not Applicable,Richburg,Allegany,Scio,Allentown,B,Richburg,8/8/1983,5/22/1967,5/31/1967,,,,8/8/1983,,Pre-1989 Well (N/A),0,Vertical,9,NA,1470,-78.06534,42.09948,-78.06534,42.09948,0,0,0,0,Not Listed,,,,,10/17/1994
31-003-05268-00-00 ,Yes,Yes,Yes,5268,Meadowbank mb10,C.O.G. Development & Resources Inc.,Oil Development,Inactive,Not Applicable,Richburg,Allegany,Bolivar,Allentown,G,Richburg,,5/19/1967,6/9/1967,5/25/1967,6/30/1967,6/30/1967,,,Pre-1989 Well (N/A),0,Vertical,9,NA,1550,-78.117347,42.034721,-78.117347,42.034721,1454,1454,0,1454,Not Listed,,,,,12/18/2023
31-003-05273-00-00 ,No,Yes,No,5273,Black 038,Ebenezer Oil Co. Inc.,Enhanced Oil Recovery - Injection,Plugged and Abandoned,Not Applicable,Richburg,Allegany,Alma,Allentown,I,Richburg,2/2/1990,6/16/1967,6/20/1967,6/16/1967,7/10/1967,7/10/1967,2/2/1990,,Pre-1989 Well (N/A),0,Vertical,9,NA,0,-78.03124,42.0315,-78.03124,42.0315,1706,1706,0,1706,Not Listed,,,,,12/13/1993
31-003-05279-00-00 ,No,Yes,No,5279,Stoney Lease 202,Bradley Producing Corp.,Oil Development,Plugged and Abandoned,Richburg,Richburg,Allegany,Alma,Allentown,H,Richburg,4/12/1972,6/19/1967,6/21/1967,6/23/1967,7/14/1967,7/20/1967,4/12/1972,,Pre-1989 Well (N/A),0,Vertical,9,NA,1300,-78.07118,42.02746,-78.07118,42.02746,1180,1180,0,1180,Not Listed,,,,,12/14/1998
31-003-05281-00-00 ,Yes,Yes,Yes,5281,Slade Lot 29 H-23,Sandstone Oil & Gas Development LLC,Oil Development,Inactive,Richburg,Richburg,Allegany,Genesee,Bolivar,D,Richburg,,,6/21/1967,7/5/1967,,7/24/1967,,,Pre-1989 Well (N/A),0,Vertical,9,NA,1185,-78.23846,42.04373,-78.23846,42.04373,1169,1169,0,1169,Oil Development,,,,,8/15/2023
31-003-05282-00-00 ,No,Yes,No,5282,New Vincent 38,Ebenezer Oil Co. Inc.,Oil Development,Plugged and Abandoned,Richburg,Richburg,Allegany,Scio,Allentown,B,Richburg,8/29/1983,6/20/1967,6/22/1967,6/22/1967,7/20/1967,7/20/1967,8/29/1983,,Pre-1989 Well (N/A),0,Vertical,9,NA,1480,-78.06625,42.09949,-78.06625,42.09949,1450,1450,0,1450,Not Listed,,,,,10/17/1994
31-003-05299-00-00 ,Yes,Yes,Yes,5299,Slade Lot 29 H-34,Sandstone Oil & Gas Development LLC,Oil Development,Inactive,Richburg,Richburg,Allegany,Genesee,Bolivar,D,Richburg,,,7/10/1967,7/28/1967,,8/31/1967,,,Pre-1989 Well (N/A),0,Vertical,9,NA,1200,-78.23661,42.04381,-78.23661,42.04381,1258,1258,0,1258,Oil Development,,,,,8/15/2023
31-003-05305-00-00 ,Yes,Yes,No,5305,Austin-Bayard 16,Wildcat Oil Producer LLC,Oil Development,Active,Not Applicable,Fulmer Valley,Allegany,Independence,Whitesville,F,Beech Hill-Independence,,,1/10/1968,,7/28/1967,7/28/1967,,,Pre-1989 Well (N/A),0,Vertical,9,NA,0,-77.75607,42.08059,-77.75607,42.08059,1255,1255,0,1255,Not Listed,,,,,10/14/2025
31-003-05306-00-00 ,No,Yes,Yes,5306,Austin 17,The Richardson Petroleum Corporation,Oil Development,Plugged and Abandoned,Not Applicable,Fulmer Valley,Allegany,Independence,Whitesville,F,Beech Hill-Independence,2/24/1992,,7/13/1967,8/2/1967,8/21/1967,8/23/1967,2/24/1992,,Pre-1989 Well (N/A),0,Vertical,9,NA,1250,-77.75602,42.07829,-77.75602,42.07829,1280,1280,0,1280,Not Listed,,,,,5/31/1989
31-003-05312-00-00 ,No,Yes,No,5312,Stoney Lease 184,Bradley Producing Corp.,Oil Development,Plugged and Abandoned,Richburg,Richburg,Allegany,Alma,Allentown,H,Richburg,4/6/1972,7/18/1967,7/21/1967,7/24/1967,8/17/1967,8/23/1967,4/6/1972,,Pre-1989 Well (N/A),0,Vertical,9,NA,1300,-78.06594,42.02647,-78.06594,42.02647,1319,1319,0,1319,Not Listed,,,,,5/31/1989
31-003-05333-00-00 ,No,Yes,No,5333,Greene 263,Plants and Goodwin Inc.,Enhanced Oil Recovery - Injection,Plugged and Abandoned,Not Applicable,Richburg,Allegany,Bolivar,Allentown,D,Richburg,5/30/2000,,8/3/1967,7/5/1967,,7/20/1967,5/30/2000,,Pre-1989 Well (N/A),0,Vertical,9,NA,0,-78.08528,42.06553,-78.08528,42.06553,1640,1640,0,1640,Not Listed,,,,,7/7/2000
31-003-05334-00-00 ,No,Yes,No,5334,Greene 264,Plants and Goodwin Inc.,Enhanced Oil Recovery - Injection,Plugged and Abandoned,Not Applicable,Richburg,Allegany,Bolivar,Allentown,D,Richburg,5/31/2000,,8/3/1967,7/26/1967,,8/18/1967,5/31/2000,,Pre-1989 Well (N/A),0,Vertical,9,NA,0,-78.08528,42.06635,-78.08528,42.06635,1597,1597,0,1597,Not Listed,,,,,7/7/2000
31-003-05338-00-00 ,No,Yes,No,5338,Stoney Lease 234,Bradley Producing Corp.,Oil Development,Plugged and Abandoned,Richburg,Richburg,Allegany,Alma,Allentown,H,Richburg,5/16/1972,8/16/1967,8/18/1967,8/24/1967,9/13/1967,9/20/1967,5/16/1972,,Pre-1989 Well (N/A),0,Vertical,9,NA,1100,-78.07402,42.02735,-78.07402,42.02735,1173,1173,0,1173,Not Listed,,,,,5/31/1989
31-003-05339-00-00 ,Yes,Yes,No,5339,Austin-Bayard 18,Wildcat Oil Producer LLC,Oil Development,Active,Not Applicable,Fulmer Valley,Allegany,Independence,Whitesville,F,Beech Hill-Independence,,,2/14/1968,,9/11/1967,,,,Pre-1989 Well (N/A),0,Vertical,9,NA,0,-77.75347,42.08123,-77.75347,42.08123,1221,1221,0,1221,Not Listed,,,,,10/14/2025
31-003-05342-00-00 ,No,Yes,No,5342,Vincent & York 041,Ebenezer Oil Co. Inc.,Enhanced Oil Recovery - Injection,Plugged and Abandoned,Not Applicable,Upper Devonian,Allegany,Scio,Allentown,B,Richburg,7/25/1988,8/16/1967,8/21/1967,8/9/1967,8/22/1967,8/22/1967,7/25/1988,,Pre-1989 Well (N/A),0,Vertical,9,NA,1400,-78.06149,42.09983,-78.06149,42.09983,1345,1345,0,1345,Not Listed,,,,,12/22/1993
31-003-05348-00-00 ,Yes,Yes,Yes,5348,Slade Lot 29 G-45,Sandstone Oil & Gas Development LLC,Oil Development,Inactive,Richburg,Richburg,Allegany,Genesee,Bolivar,D,Richburg,12/31/2024,,8/25/1967,9/1/1967,,9/25/1967,,,Pre-1989 Well (N/A),0,Vertical,9,NA,1250,-78.235768,42.044498,-78.235768,42.044498,1268,1268,0,1268,Oil Development,,,,,7/8/2025
31-003-05349-00-00 ,No,Yes,No,5349,Green 265,Plants and Goodwin Inc.,Enhanced Oil Recovery - Injection,Plugged and Abandoned,Not Applicable,Richburg,Allegany,Bolivar,Allentown,D,Richburg,5/14/1999,,8/12/1967,8/5/1967,,9/15/1967,5/14/1999,,Pre-1989 Well (N/A),0,Vertical,9,NA,0,-78.08528,42.06717,-78.08528,42.06717,1573,1573,0,1573,Not Listed,,,,,6/15/1999
31-003-05369-00-00 ,No,Yes,No,5369,Vincent 175,Ebenezer Oil Co. Inc.,Oil Development,Plugged and Abandoned,Richburg,Richburg,Allegany,Scio,Allentown,B,Richburg,10/18/1983,8/25/1967,8/30/1967,8/29/1967,10/6/1967,10/6/1967,10/18/1983,,Pre-1989 Well (N/A),0,Vertical,9,NA,1350,-78.06197,42.09949,-78.06197,42.09949,1389,1389,0,1389,Not Listed,,,,,10/18/1994
31-003-05376-00-00 ,No,Yes,No,5376,Green 266,Plants and Goodwin Inc.,Enhanced Oil Recovery - Injection,Plugged and Abandoned,Not Applicable,Richburg,Allegany,Bolivar,Allentown,D,Richburg,5/11/1999,,9/12/1967,9/18/1967,,10/12/1967,5/11/1999,,Pre-1989 Well (N/A),0,Vertical,9,NA,0,-78.08611,42.06619,-78.08611,42.06619,1521,1521,0,1521,Not Listed,,,,,6/15/1999
31-003-05378-00-00 ,No,Yes,No,5378,Stoney Lease 130,Bradley Producing Corp.,Oil Development,Plugged and Abandoned,Richburg,Richburg,Allegany,Alma,Allentown,H,Richburg,3/31/1972,9/14/1967,9/20/1967,9/21/1967,10/11/1967,10/16/1967,3/31/1972,,Pre-1989 Well (N/A),0,Vertical,9,NA,1350,-78.06635,42.02713,-78.06635,42.02713,1331,1331,0,1331,Not Listed,,,,,5/31/1989
31-003-05380-00-00 ,Yes,Yes,No,5380,Quintette-Bledsoe 34,The Richardson Petroleum Corporation,Enhanced Oil Recovery - Injection,Plugged and Abandoned,Not Applicable,Fulmer Valley,Allegany,Independence,Whitesville,F,Beech Hill-Independence,5/31/2023,,3/20/1968,,,,5/31/2023,,Pre-1989 Well (N/A),0,Vertical,9,NA,0,-77.76237,42.07331,-77.76237,42.07331,0,0,0,0,Not Listed,,,,,6/6/2023
31-003-05381-00-00 ,Yes,Yes,No,5381,Potter 11,The Richardson Petroleum Corporation,Oil Development,Plugged and Abandoned,Not Applicable,Fulmer Valley,Allegany,Independence,Whitesville,F,Beech Hill-Independence,6/2/2023,8/31/1967,9/22/1967,,,,6/2/2023,,Pre-1989 Well (N/A),0,Vertical,9,NA,0,-77.76252,42.07617,-77.76252,42.07617,0,0,0,0,Not Listed,,,,,6/6/2023
31-003-05386-00-00 ,Yes,Yes,Yes,5386,Slade Lot 29 I-33,Sandstone Oil & Gas Development LLC,Enhanced Oil Recovery - Injection,Inactive,Richburg,Richburg,Allegany,Genesee,Bolivar,D,Richburg,,,10/9/1967,10/2/1967,,10/24/1967,,,Pre-1989 Well (N/A),0,Vertical,9,NA,1160,-78.238701,42.043298,-78.238701,42.043298,1160,1160,0,1160,Enhanced Oil Recovery - Injection,,,,,10/19/2021
31-003-05388-00-00 ,No,Yes,No,5388,Stoney Lease 189,Bradley Producing Corp.,Oil Development,Plugged and Abandoned,Richburg,Richburg,Allegany,Alma,Allentown,H,Richburg,3/10/1972,10/10/1967,10/13/1967,10/19/1967,11/6/1967,11/6/1967,3/10/1972,,Pre-1989 Well (N/A),0,Vertical,9,NA,1340,-78.07055,42.02897,-78.07055,42.02897,1268,1268,0,1268,Not Listed,,,,,5/31/1989
31-003-05392-00-00 ,No,Yes,No,5392,Grenn 267,Plants and Goodwin Inc.,Enhanced Oil Recovery - Injection,Plugged and Abandoned,Not Applicable,Richburg,Allegany,Bolivar,Allentown,D,Richburg,5/3/1999,,10/25/1967,10/17/1967,,11/3/1967,5/3/1999,,Pre-1989 Well (N/A),0,Vertical,9,NA,0,-78.08528,42.06635,-78.08528,42.06635,1409,1409,0,1409,Not Listed,,,,,6/18/1999
31-003-05394-00-00 ,No,Yes,No,5394,Vincent 0176,Ebenezer Oil Co. Inc.,Enhanced Oil Recovery - Injection,Plugged and Abandoned,Not Applicable,Upper Devonian,Allegany,Scio,Allentown,B,Richburg,8/24/1988,11/1/1967,11/6/1967,10/10/1967,11/16/1967,11/17/1967,8/24/1988,,Pre-1989 Well (N/A),0,Vertical,9,NA,1400,-78.0687,42.09976,-78.0687,42.09976,1389,1389,0,1389,Not Listed,,,,,4/12/2021
31-003-05399-00-00 ,No,Yes,No,5399,Greene 268,Plants and Goodwin Inc.,Enhanced Oil Recovery - Injection,Plugged and Abandoned,Not Applicable,Richburg,Allegany,Bolivar,Allentown,D,Richburg,6/22/2000,,11/6/1967,11/8/1967,,12/6/1967,6/22/2000,,Pre-1989 Well (N/A),0,Vertical,9,NA,0,-78.08528,42.06965,-78.08528,42.06965,1302,1302,0,1302,Not Listed,,,,,7/31/2000
31-003-05438-00-00 ,No,Yes,No,5438,Quintette-Bledsoe 35,The Richardson Petroleum Corporation,Enhanced Oil Recovery - Injection,Plugged and Abandoned,Not Applicable,Fulmer Valley,Allegany,Independence,Whitesville,F,Beech Hill-Independence,8/6/1998,,5/13/1968,,,,8/6/1998,,Pre-1989 Well (N/A),0,Vertical,9,NA,0,-77.76241,42.0724,-77.76241,42.0724,0,0,0,0,Not Listed,,,,,10/8/1998
31-003-05440-00-00 ,No,Yes,No,5440,Vincent 0177,Ebenezer Oil Co. Inc.,Oil Development,Plugged and Abandoned,Richburg,Richburg,Allegany,Scio,Allentown,B,Richburg,6/29/1988,11/20/1967,11/29/1967,11/23/1968,12/12/1968,12/12/1967,6/29/1988,,Pre-1989 Well (N/A),0,Vertical,9,NA,1400,-78.06962,42.09976,-78.06962,42.09976,1409,1409,0,1409,Not Listed,,,,,10/18/1994
31-003-05446-00-00 ,Yes,Yes,Yes,5446,Meadowbank mb11,C.O.G. Development & Resources Inc.,Oil Development,Inactive,Not Applicable,Richburg,Allegany,Bolivar,Allentown,G,Richburg,,12/18/1967,12/20/1967,2/1/1968,7/17/1968,7/17/1968,,,Pre-1989 Well (N/A),0,Vertical,9,NA,1600,-78.118155,42.035222,-78.118155,42.035222,1479,1479,0,1479,Not Listed,,,,,12/18/2023
31-003-05448-00-00 ,No,Yes,No,5448,Vincent 0178,Ebenezer Oil Co. Inc.,Oil Development,Plugged and Abandoned,Not Applicable,Richburg,Allegany,Scio,Allentown,B,Richburg,6/30/1988,12/22/1967,12/27/1967,12/22/1967,1/16/1968,1/19/1968,6/30/1988,,Pre-1989 Well (N/A),0,Vertical,9,NA,1450,-78.06221,42.09976,-78.06221,42.09976,1424,1424,0,1424,Not Listed,,,,,1/25/1999
31-003-05458-00-00 ,No,Yes,No,5458,Clark-Norton 010,The Richardson Petroleum Corporation,Enhanced Oil Recovery - Injection,Plugged and Abandoned,Not Applicable,Fulmer Valley,Allegany,Independence,Whitesville,F,Beech Hill-Independence,12/1/1986,,1/18/1968,1/30/1968,,2/28/1968,12/1/1986,,Pre-1989 Well (N/A),0,Vertical,9,NA,0,-77.75871,42.06642,-77.75871,42.06642,1241,1241,0,1241,Not Listed,,,,,1/3/1996
31-003-05459-00-00 ,No,Yes,No,5459,Clark-Norton 011,The Richardson Petroleum Corporation,Enhanced Oil Recovery - Injection,Plugged and Abandoned,Not Applicable,Fulmer Valley,Allegany,Independence,Whitesville,F,Beech Hill-Independence,12/1/1986,,1/18/1968,2/20/1968,,3/1/1968,12/1/1986,,Pre-1989 Well (N/A),0,Vertical,9,NA,0,-77.75978,42.06642,-77.75978,42.06642,1247,1247,0,1247,Not Listed,,,,,1/3/1996
31-003-05460-00-00 ,No,Yes,No,5460,Clark-Norton 012,The Richardson Petroleum Corporation,Not Listed,Expired Permit,Not Applicable,Not Applicable,Allegany,Independence,Whitesville,,Beech Hill-Independence,10/29/1968,,2/13/1969,,,,,,Pre-1989 Well (N/A),0,Vertical,9,NA,0,0,0,0,0,0,0,0,0,Not Listed,,,,,6/30/1994
31-003-05462-00-00 ,Yes,Yes,No,5462,Polly 20,Moose Oil Co.,Oil Development,Plugged and Abandoned,Richburg,Richburg,Allegany,Bolivar,Allentown,G,Richburg,,1/13/1968,1/18/1968,1/20/1968,12/20/1968,12/21/1968,1/3/2017,,Pre-1989 Well (N/A),0,Vertical,9,NA,1300,-78.113018,42.024789,-78.113018,42.024789,1218,1218,0,1218,Not Listed,,,,,1/12/2017
31-003-05503-00-00 ,Yes,Yes,No,5503,Quintette-Bledsoe 36,The Richardson Petroleum Corporation,Oil Development,Plugged and Abandoned,Not Applicable,Fulmer Valley,Allegany,Independence,Whitesville,F,Beech Hill-Independence,5/31/2023,4/10/1968,4/23/1968,3/29/1968,4/12/1968,4/12/1968,5/31/2023,,Pre-1989 Well (N/A),0,Vertical,9,NA,0,-77.76255,42.07034,-77.76255,42.07034,1267,1267,0,1267,Not Listed,,,,,6/6/2023
31-003-05504-00-00 ,No,Yes,No,5504,Bledsoe 41,The Richardson Petroleum Corporation,Oil Development,Plugged and Abandoned,Not Applicable,Fulmer Valley,Allegany,Independence,Whitesville,F,Beech Hill-Independence,8/10/1998,4/10/1968,4/23/1968,4/18/1968,5/3/1968,5/8/1968,8/10/1998,,Pre-1989 Well (N/A),0,Vertical,9,NA,0,-77.7641,42.07182,-77.7641,42.07182,1264,1264,0,1264,Not Listed,,,,,10/8/1998
31-003-05505-00-00 ,Yes,Yes,Yes,5505,7-79,Estate of James Robert Wells,Oil Wildcat,Inactive,Not Applicable,Richburg,Allegany,Alma,Allentown,I,Richburg,12/31/2023,4/15/1968,4/23/1968,4/20/1968,5/8/1968,5/15/1968,,,Pre-1989 Well (N/A),0,Vertical,9,NA,0,-78.00613,42.02987,-78.00613,42.02987,1226,1226,0,1226,Not Listed,,,,,9/6/2024
31-003-05508-00-00 ,No,Yes,No,5508,Neff 0110,Ebenezer Oil Co. Inc.,Enhanced Oil Recovery - Injection,Plugged and Abandoned,Richburg,Richburg,Allegany,Scio,Allentown,B,Richburg,6/13/1988,4/28/1968,4/28/1968,4/25/1968,5/3/1968,5/3/1968,6/13/1988,,Pre-1989 Well (N/A),0,Vertical,9,NA,1200,-78.05698,42.09473,-78.05698,42.09473,1190,1190,0,1190,Not Listed,,,,,7/5/1995
31-003-05510-00-00 ,No,Yes,No,5510,Clair 1,Quaker State Corp.,Gas Wildcat,Plugged and Abandoned,Not Applicable,Richburg,Allegany,Alma,Allentown,E,Richburg,7/16/1987,,9/9/1968,5/15/1968,,7/10/1968,7/16/1987,,Pre-1989 Well (N/A),0,Vertical,9,NA,0,-78.05292,42.08011,-78.05292,42.08011,4660,4660,0,4660,Not Listed,,,,,12/17/1998
31-003-05517-00-00 ,No,Yes,No,5517,Neff 112,Ebenezer Oil Co. Inc.,Oil Development,Plugged and Abandoned,Not Applicable,Richburg,Allegany,Scio,Allentown,B,Richburg,6/14/1988,5/3/1968,5/9/1968,5/6/1968,5/31/1968,6/1/1968,6/14/1988,,Pre-1989 Well (N/A),0,Vertical,9,NA,1210,-78.0575,42.09547,-78.0575,42.09547,1193,1193,0,1193,Not Listed,,,,,12/17/1998
31-003-05518-00-00 ,Yes,Yes,Yes,5518,13-79,Estate of James Robert Wells,Oil Wildcat,Inactive,Not Applicable,Richburg,Allegany,Alma,Allentown,I,Richburg,12/31/2023,5/8/1968,5/13/1968,5/21/1968,6/17/1968,6/23/1968,,,Pre-1989 Well (N/A),0,Vertical,9,NA,0,-78.00794,42.032421,-78.00794,42.032421,1392,1392,0,1392,Not Listed,,,,,9/6/2024
31-003-05529-00-00 ,Yes,Yes,Yes,5529,Black 41,Klein Oil & Logging,Oil Development,Plugged and Abandoned,Not Applicable,Richburg,Allegany,Alma,Allentown,I,Richburg,4/18/2013,5/13/1968,5/16/1968,5/18/1968,6/15/1968,6/15/1968,4/18/2013,,Pre-1989 Well (N/A),0,Vertical,9,NA,1700,-78.03272,42.03178,-78.03272,42.03178,1754,1754,0,1754,Not Listed,,,,,5/29/2013
31-003-05539-00-00 ,Yes,Yes,Yes,5539,Trio 501,Saint John Exploration & Production Inc.,Oil Development,Inactive,Richburg,Richburg,Allegany,Bolivar,Allentown,D,Richburg,,5/27/1968,6/3/1968,8/1/1967,4/1/1968,4/1/1968,,,Pre-1989 Well (N/A),0,Vertical,9,NA,1876,-78.09391,42.07713,-78.09391,42.07713,1876,1876,0,1876,Not Listed,,,,,8/19/2025
31-003-05548-00-00 ,Yes,Yes,No,5548,Austin 19,The Richardson Petroleum Corporation,Oil Development,Plugged and Abandoned,Not Applicable,Fulmer Valley,Allegany,Independence,Whitesville,F,Beech Hill-Independence,10/11/1992,,12/13/1968,6/6/1968,,6/26/1968,10/11/1992,,Pre-1989 Well (N/A),0,Vertical,9,NA,1260,-77.75263,42.0777,-77.75263,42.0777,1274,1274,0,1274,Not Listed,,,,,1/13/2026
31-003-05778-00-00 ,Yes,Yes,No,5778,Austin-Bayard 20,Klein Oil & Logging,Oil Development,Plugged and Abandoned,Not Applicable,Fulmer Valley,Allegany,Independence,Whitesville,F,Beech Hill-Independence,9/22/2015,,1/10/1969,,7/30/1968,,9/22/2015,,Pre-1989 Well (N/A),0,Vertical,9,NA,0,-77.75447,42.0773,-77.75447,42.0773,1285,1285,0,1285,Not Listed,,,,,11/18/2015
31-003-05785-00-00 ,No,Yes,No,5785,Lot 92-93 7e,Day James W,Oil Development,Plugged and Abandoned,Not Applicable,Richburg,Allegany,Alma,Allentown,I,Richburg,8/22/2000,7/22/1968,7/24/1968,7/23/1968,8/9/1968,8/15/1968,8/22/2000,,Pre-1989 Well (N/A),0,Vertical,9,NA,1750,-78.03254,42.03422,-78.03254,42.03422,1732,1732,0,1732,Not Listed,,,,,9/11/2000
31-003-05787-00-00 ,No,Yes,No,5787,Neff 113,Ebenezer Oil Co. Inc.,Oil Development,Plugged and Abandoned,Not Applicable,Richburg,Allegany,Scio,Allentown,B,Richburg,6/15/1988,6/25/1968,7/24/1968,6/29/1968,7/18/1968,7/22/1968,6/15/1988,,Pre-1989 Well (N/A),0,Vertical,9,NA,1250,-78.05745,42.09624,-78.05745,42.09624,1213,1213,0,1213,Not Listed,,,,,2/5/1999
31-003-05788-00-00 ,No,Yes,No,5788,Black 42,Ebenezer Oil Co. Inc.,Oil Development,Plugged and Abandoned,Richburg,Richburg,Allegany,Alma,Allentown,I,Richburg,2/26/1990,6/25/1968,7/24/1968,6/25/1968,7/15/1968,7/15/1968,2/26/1990,,Pre-1989 Well (N/A),0,Vertical,9,NA,1725,-78.03014,42.03224,-78.03014,42.03224,1753,1753,0,1753,Not Listed,,,,,5/31/1989
31-003-05801-00-00 ,No,Yes,No,5801,Alma Hill 46-79,K-Arcy Corp.,Oil Development,Plugged and Abandoned,Not Applicable,Richburg,Allegany,Alma,Allentown,I,Richburg,6/16/1987,8/7/1968,8/8/1968,8/13/1968,9/7/1968,9/9/1968,6/16/1987,,Pre-1989 Well (N/A),0,Vertical,9,NA,1400,-78.0144,42.03106,-78.0144,42.03106,1404,1404,0,1404,Not Listed,,,,,12/9/1998
31-003-05804-00-00 ,Yes,Yes,No,5804,Austin-Bayard 21,Klein Oil & Logging,Oil Development,Plugged and Abandoned,Not Applicable,Fulmer Valley,Allegany,Independence,Whitesville,F,Beech Hill-Independence,9/16/2015,8/6/1968,8/13/1968,,,8/27/1968,9/16/2015,,Pre-1989 Well (N/A),0,Vertical,9,NA,0,-77.75636,42.0773,-77.75636,42.0773,1269,1269,0,1269,Not Listed,,,,,5/25/2016
31-003-06051-00-00 ,No,Yes,No,6051,Lot 92 8e,Day James W,Oil Development,Plugged and Abandoned,Not Applicable,Richburg,Allegany,Alma,Allentown,I,Richburg,8/24/2000,8/19/1968,8/26/1968,8/19/1968,9/10/1968,9/15/1968,8/24/2000,,Pre-1989 Well (N/A),0,Vertical,9,NA,1700,-78.03261,42.03541,-78.03261,42.03541,1660,1660,0,1660,Not Listed,,,,,9/11/2000
31-003-06052-00-00 ,No,Yes,No,6052,Neff 0115,Ebenezer Oil Co. Inc.,Oil Development,Plugged and Abandoned,Not Applicable,Richburg,Allegany,Scio,Allentown,B,Richburg,6/16/1988,8/19/1968,8/26/1968,8/19/1968,8/31/1968,9/3/1968,6/16/1988,,Pre-1989 Well (N/A),0,Vertical,9,NA,1260,-78.05747,42.09696,-78.05747,42.09696,1214,1214,0,1214,Not Listed,,,,,12/17/1998
31-003-06054-00-00 ,Yes,Yes,No,6054,Austin 40-4,Wildcat Oil Producer LLC,Oil Development,Active,Fulmer Valley,Fulmer Valley,Allegany,Independence,Whitesville,F,Beech Hill-Independence,,5/8/1968,9/6/1968,5/10/1968,,6/4/1968,,,Pre-1989 Well (N/A),0,Vertical,9,NA,1260,-77.76071,42.07486,-77.76071,42.07486,1265,1265,0,1265,Oil Development,,,,,12/5/2025
31-003-06055-00-00 ,No,Yes,No,6055,Vincent 179,Ebenezer Oil Co. Inc.,Oil Development,Plugged and Abandoned,Richburg,Richburg,Allegany,Scio,Allentown,B,Richburg,3/30/1992,9/4/1968,9/6/1968,9/6/1968,9/23/1968,9/26/1968,3/30/1992,,Pre-1989 Well (N/A),0,Vertical,9,NA,1400,-78.06058,42.09267,-78.06058,42.09267,1441,1441,0,1441,Not Listed,,,,,12/22/1993
31-003-06057-00-00 ,No,Yes,No,6057,Vincent 180,Ebenezer Oil Co. Inc.,Oil Development,Plugged and Abandoned,Richburg,Richburg,Allegany,Scio,Allentown,B,Richburg,10/25/1983,9/4/1968,9/6/1968,10/4/1968,10/28/1968,10/30/1968,10/25/1983,,Pre-1989 Well (N/A),0,Vertical,9,NA,1430,-78.06363,42.10018,-78.06363,42.10018,1475,1475,0,1475,Not Listed,,,,,10/18/1994
31-003-06058-00-00 ,No,Yes,No,6058,Sidehill 44,Ebenezer Oil Co. Inc.,Not Listed,Expired Permit,Not Applicable,Not Applicable,Allegany,Alma,Allentown,E,Not Applicable,3/6/1969,9/4/1968,9/6/1968,,,,,,Pre-1989 Well (N/A),0,Vertical,9,NA,1500,-78.05131,42.04433,-78.05131,42.04433,0,0,0,0,Not Listed,,,,,8/15/1995
31-003-06385-00-00 ,Yes,Yes,Yes,6385,Green 269,Plants and Goodwin Inc.,Oil Development,Plugged and Abandoned,Not Applicable,Richburg,Allegany,Bolivar,Allentown,D,Richburg,,7/30/1968,10/9/1968,,,8/23/1968,12/21/2015,,Pre-1989 Well (N/A),0,Vertical,9,NA,0,-78.08476,42.06679,-78.08476,42.06679,1589,1589,0,1589,Not Listed,,,,,1/7/2016
31-003-06386-00-00 ,Yes,Yes,No,6386,Green 270,Plants and Goodwin Inc.,Oil Development,Plugged and Abandoned,Not Applicable,Richburg,Allegany,Bolivar,Allentown,D,Richburg,4/1/2013,7/30/1968,10/9/1968,,,10/29/1968,4/1/2013,,Pre-1989 Well (N/A),0,Vertical,9,NA,0,-78.08476,42.06844,-78.08476,42.06844,1553,1553,0,1553,Not Listed,,,,,5/25/2016
31-003-06387-00-00 ,Yes,Yes,No,6387,Green 271,Plants and Goodwin Inc.,Oil Development,Plugged and Abandoned,Not Applicable,Richburg,Allegany,Bolivar,Allentown,D,Richburg,5/31/2018,7/30/1968,10/9/1968,,,,5/31/2018,,Pre-1989 Well (N/A),0,Vertical,9,NA,0,-78.08476,42.06929,-78.08476,42.06929,1334,1334,0,1334,Not Listed,,,,,8/30/2018
31-003-06390-00-00 ,No,Yes,No,6390,Alma Hill 8-90,K-Arcy Corp.,Oil Development,Plugged and Abandoned,Not Applicable,Richburg,Allegany,Alma,Allentown,I,Richburg,6/9/1987,10/8/1968,10/10/1968,10/25/1968,12/3/1968,12/11/1968,6/9/1987,,Pre-1989 Well (N/A),0,Vertical,9,NA,1410,-78.00378,42.03362,-78.00378,42.03362,1496,1496,0,1496,Not Listed,,,,,12/9/1998
31-003-06643-00-00 ,No,Yes,No,6643,Stillman 04,The Richardson Petroleum Corporation,Oil Development,Plugged and Abandoned,Not Applicable,Fulmer Valley,Allegany,Independence,Whitesville,F,Beech Hill-Independence,9/10/1996,,11/7/1968,,,,9/10/1996,,Pre-1989 Well (N/A),0,Vertical,9,NA,0,-77.75156,42.07732,-77.75156,42.07732,1220,1220,0,1220,Not Listed,,,,,1/6/1997
31-003-06648-00-00 ,Yes,Yes,No,6648,Stillman 05,The Richardson Petroleum Corporation,Oil Development,Plugged and Abandoned,Not Applicable,Fulmer Valley,Allegany,Independence,Whitesville,F,Beech Hill-Independence,4/14/2023,11/11/1968,11/14/1968,,,,4/14/2023,,Pre-1989 Well (N/A),0,Vertical,9,NA,0,-77.75199,42.07397,-77.75199,42.07397,0,0,0,0,Not Listed,,,,,8/1/2023
31-003-06658-00-00 ,Yes,Yes,No,6658,Foreman 111,Burdick Jeffery H,Oil Development,Active,Not Applicable,Waugh & Porter,Allegany,Bolivar,Bolivar,F,Richburg,,11/18/1968,11/19/1968,1/6/1969,1/27/1969,2/11/1969,,,Pre-1989 Well (N/A),0,Vertical,9,NA,1600,-78.15208,42.04718,-78.15208,42.04718,1647,1647,0,1647,Not Listed,,,,,9/10/2024
31-003-06659-00-00 ,No,Yes,No,6659,New Vincent 47,Ebenezer Oil Co. Inc.,Oil Development,Plugged and Abandoned,Not Applicable,Richburg,Allegany,Scio,Allentown,B,Richburg,11/15/1983,11/20/1968,11/25/1968,11/26/1988,12/17/1968,12/18/1968,11/15/1983,,Pre-1989 Well (N/A),0,Vertical,9,NA,1500,-78.06508,42.09283,-78.06508,42.09283,1492,1492,0,1492,Not Listed,,,,,1/25/1999
31-003-06672-00-00 ,No,Yes,No,6672,Alma Hill 27-78,Bradley Producing Corp.,Oil Development,Plugged and Abandoned,Not Applicable,Richburg,Allegany,Alma,Allentown,I,Richburg,5/9/1987,12/9/1968,12/11/1968,12/16/1968,1/7/1969,1/14/1969,5/9/1987,,Pre-1989 Well (N/A),0,Vertical,9,NA,1700,-78.02483,42.03103,-78.02483,42.03103,1669,1669,0,1669,Not Listed,,,,,12/14/1998
31-003-06715-00-00 ,Yes,Yes,No,6715,Austin-Bayard 23,Wildcat Oil Producer LLC,Oil Development,Active,Not Applicable,Fulmer Valley,Allegany,Independence,Whitesville,F,Beech Hill-Independence,,12/12/1968,12/16/1968,12/7/1968,12/19/1968,9/25/1969,,,Pre-1989 Well (N/A),0,Vertical,9,NA,1230,-77.75346,42.07976,-77.75346,42.07976,1225,1225,0,1225,Not Listed,,,,,10/14/2025
31-003-06717-00-00 ,No,Yes,No,6717,York 042,Ebenezer Oil Co. Inc.,Enhanced Oil Recovery - Injection,Plugged and Abandoned,Not Applicable,Upper Devonian,Allegany,Scio,Allentown,B,Richburg,7/27/1988,12/19/1968,12/26/1968,12/23/1968,1/18/1969,1/18/1969,7/27/1988,,Pre-1989 Well (N/A),0,Vertical,9,NA,1400,-78.0609,42.09828,-78.0609,42.09828,1400,1400,0,1400,Not Listed,,,,,12/22/1993
31-003-06822-00-00 ,No,Yes,No,6822,York 043,Ebenezer Oil Co. Inc.,Enhanced Oil Recovery - Injection,Plugged and Abandoned,Not Applicable,Upper Devonian,Allegany,Scio,Allentown,B,Richburg,7/28/1988,1/17/1969,1/21/1969,1/21/1969,2/17/1969,2/19/1969,7/28/1988,,Pre-1989 Well (N/A),0,Vertical,9,NA,1380,-78.05992,42.09799,-78.05992,42.09799,1360,1360,0,1360,Not Listed,,,,,12/22/1993
31-003-06860-00-00 ,No,Yes,No,6860,Clark-Norton 12,The Richardson Petroleum Corporation,Oil Development,Plugged and Abandoned,Fulmer Valley,Fulmer Valley,Allegany,Independence,Whitesville,F,Beech Hill-Independence,4/13/1990,2/11/1969,2/13/1969,2/11/1969,8/5/1969,8/7/1969,4/13/1990,,Pre-1989 Well (N/A),0,Vertical,9,NA,1200,-77.75875,42.06718,-77.75875,42.06718,1232,1232,0,1232,Not Listed,,,,,3/16/1990
31-003-06862-00-00 ,Yes,Yes,No,6862,York 44,Collins Dave,Oil Development,Inactive,Not Applicable,Fulmer Valley,Allegany,Scio,Allentown,B,Richburg,,,2/17/1969,3/27/1969,3/27/1989,3/29/1969,,,Pre-1989 Well (N/A),0,Vertical,9,NA,1400,-78.060665,42.097557,-78.060665,42.097557,1410,1410,0,1410,Not Listed,,,,,3/30/2026
31-003-06863-00-00 ,Yes,Yes,No,6863,Foreman 112,Burdick Jeffery H,Oil Development,Active,Not Applicable,Waugh & Porter,Allegany,Bolivar,Bolivar,F,Richburg,,2/19/1969,2/21/1969,3/1/1969,5/21/1969,5/30/1969,,,Pre-1989 Well (N/A),0,Vertical,9,NA,1675,-78.1497,42.04699,-78.1497,42.04699,1677,1677,0,1677,Not Listed,,,,,12/13/2019
31-003-06875-00-00 ,Yes,Yes,No,6875,Wheeler 42 (W42),Simon of Bolivar Enterprises Inc.,Enhanced Oil Recovery - Injection,Inactive,Not Applicable,Richburg,Allegany,Bolivar,Bolivar,H,Richburg,7/5/1969,3/20/1969,3/20/1969,4/10/1969,6/24/1969,6/24/1969,,,Pre-1989 Well (N/A),0,Vertical,9,NA,1500,-78.175128,42.006155,-78.175128,42.006155,1368,1368,0,1368,Not Listed,,,,,12/18/2024
31-003-06876-00-00 ,Yes,Yes,Yes,6876,Wheeler B-2,J. J. Bucher Producing Corporation,Oil Development,Inactive,Not Applicable,Richburg,Allegany,Bolivar,Bolivar,I,Richburg,3/20/1969,3/20/1969,3/20/1969,8/2/1968,9/10/1968,9/11/1968,,,Pre-1989 Well (N/A),1,Vertical,9,NA,1300,-78.16195,42.01396,-78.16195,42.01396,1293,1293,0,1293,Not Listed,,,,,12/23/2024
31-003-06877-00-00 ,No,Yes,No,6877,Clark-Norton 13,The Richardson Petroleum Corporation,Oil Development,Plugged and Abandoned,Not Applicable,Fulmer Valley,Allegany,Independence,Whitesville,F,Beech Hill-Independence,3/24/1990,3/21/1969,3/25/1969,3/19/1969,4/10/1990,4/16/1969,3/24/1990,,Pre-1989 Well (N/A),0,Vertical,9,NA,1240,-77.76159,42.06718,-77.76159,42.06718,1224,1224,0,1224,Not Listed,,,,,5/31/1989
31-003-06878-00-00 ,No,Yes,No,6878,York 045,Ebenezer Oil Co. Inc.,Enhanced Oil Recovery - Injection,Plugged and Abandoned,Not Applicable,Upper Devonian,Allegany,Scio,Allentown,B,Richburg,7/29/1988,3/31/1969,3/27/1969,4/1/1969,4/28/1969,4/29/1969,7/29/1988,,Pre-1989 Well (N/A),0,Vertical,9,NA,1200,-78.05992,42.09921,-78.05992,42.09921,1308,1308,0,1308,Not Listed,,,,,12/22/1993
31-003-06933-00-00 ,No,Yes,No,6933,Emerson 0148,Ebenezer Oil Co. Inc.,Enhanced Oil Recovery - Injection,Plugged and Abandoned,Richburg,Richburg,Allegany,Scio,Allentown,B,Richburg,8/17/1989,4/7/1969,4/8/1969,4/7/1969,5/12/1969,5/13/1969,8/17/1989,,Pre-1989 Well (N/A),0,Vertical,9,NA,1040,-78.05069,42.09341,-78.05069,42.09341,1017,1017,0,1017,Not Listed,,,,,2/5/1999
31-003-06934-00-00 ,No,Yes,No,6934,Quintette-Bledsoe 037,The Richardson Petroleum Corporation,Oil Development,Plugged and Abandoned,Not Applicable,Fulmer Valley,Allegany,Independence,Whitesville,F,Beech Hill-Independence,9/25/1992,4/16/1969,4/17/1969,4/18/1969,5/17/1969,5/21/1969,9/25/1992,,Pre-1989 Well (N/A),0,Vertical,9,NA,1250,-77.75543,42.06979,-77.75543,42.06979,1215,1215,0,1215,Not Listed,,,,,1/19/1992
31-003-06968-00-00 ,Yes,Yes,No,6968,York 46,Collins Dave,Oil Development,Inactive,Not Applicable,Fulmer Valley,Allegany,Scio,Allentown,B,Richburg,,4/23/1969,4/24/1969,4/29/1969,4/29/1969,5/22/1969,,,Pre-1989 Well (N/A),0,Vertical,9,NA,1250,-78.060338,42.098355,-78.060338,42.098355,1423,1423,0,1423,Not Listed,,,,,3/30/2026
31-003-06969-00-00 ,No,Yes,No,6969,Emerson 149,Ebenezer Oil Co. Inc.,Oil Development,Plugged and Abandoned,Richburg,Richburg,Allegany,Scio,Allentown,B,Richburg,7/22/1991,5/7/1969,5/7/1969,5/7/1969,6/4/1969,6/9/1969,7/22/1991,,Pre-1989 Well (N/A),0,Vertical,9,NA,1100,-78.05191,42.0919,-78.05191,42.0919,1078,1078,0,1078,Not Listed,,,,,
31-003-07084-00-00 ,No,Yes,No,7084,Emerson 0150,Ebenezer Oil Co. Inc.,Enhanced Oil Recovery - Injection,Plugged and Abandoned,Richburg,Richburg,Allegany,Scio,Allentown,B,Richburg,8/7/1989,6/9/1969,6/11/1969,6/10/1969,7/8/1969,7/10/1969,8/7/1989,,Pre-1989 Well (N/A),0,Vertical,9,NA,1025,-78.05246,42.09146,-78.05246,42.09146,1082,1082,0,1082,Not Listed,,,,,2/5/1999
31-003-07095-00-00 ,Yes,Yes,No,7095,Slade Lot 29 F-11,Sandstone Oil & Gas Development LLC,Oil Development,Inactive,Richburg,Richburg,Allegany,Genesee,Bolivar,D,Richburg,12/31/2024,6/13/1969,6/19/1969,6/20/1969,7/8/1969,7/10/1969,,,Pre-1989 Well (N/A),0,Vertical,9,NA,1260,-78.24043,42.04514,-78.24043,42.04514,1239,1239,0,1239,Oil Development,,,,,7/8/2025
31-003-07096-00-00 ,No,Yes,No,7096,Green 272,Plants and Goodwin Inc.,Enhanced Oil Recovery - Injection,Plugged and Abandoned,Not Applicable,Richburg,Allegany,Bolivar,Allentown,D,Richburg,4/23/1999,5/21/1969,5/21/1969,5/27/1969,6/13/1969,6/13/1969,4/23/1999,,Pre-1989 Well (N/A),0,Vertical,9,NA,1400,-78.08421,42.0697,-78.08421,42.0697,1257,1257,0,1257,Not Listed,,,,,4/23/1999
31-003-07097-00-00 ,No,Yes,No,7097,Green 273,Plants and Goodwin Inc.,Enhanced Oil Recovery - Injection,Plugged and Abandoned,Not Applicable,Richburg,Allegany,Bolivar,Allentown,D,Richburg,4/28/1999,5/21/1969,5/21/1969,6/19/1969,7/21/1969,7/21/1969,4/28/1999,,Pre-1989 Well (N/A),0,Vertical,9,NA,1400,-78.08421,42.06888,-78.08421,42.06888,1349,1349,0,1349,Not Listed,,,,,5/24/1999
31-003-07102-00-00 ,No,Yes,No,7102,Green 274,Plants and Goodwin Inc.,Enhanced Oil Recovery - Injection,Plugged and Abandoned,Not Applicable,Richburg,Allegany,Bolivar,Allentown,D,Richburg,6/23/1993,5/21/1969,6/30/1969,8/3/1969,9/1/1969,9/2/1969,6/23/1993,,Pre-1989 Well (N/A),0,Vertical,9,NA,1400,-78.08421,42.06805,-78.08421,42.06805,1435,1435,0,1435,Not Listed,,,,,8/5/1993
31-003-07114-00-00 ,Yes,Yes,No,7114,Slade Lot 29 F-34,Sandstone Oil & Gas Development LLC,Oil Development,Plugged and Abandoned,Richburg,Richburg,Allegany,Genesee,Bolivar,D,Richburg,11/12/2009,,7/11/1969,7/11/1969,8/1/1969,8/3/1969,11/12/2009,,Pre-1989 Well (N/A),0,Vertical,9,NA,1220,-78.236382,42.045136,-78.236382,42.045136,1215,1215,0,1215,Oil Development,,,,,8/9/2016
31-003-07115-00-00 ,No,Yes,No,7115,Myrtle Lease Lot 19 9,Kennemuth R.L.,Not Listed,Plugged and Abandoned,Not Applicable,Richburg,Allegany,Bolivar,Allentown,G,Richburg,7/7/1969,7/6/1969,7/7/1969,,,,7/7/1969,,Pre-1989 Well (N/A),0,Vertical,9,NA,0,-78.11421,42.02529,-78.11421,42.02529,0,0,0,0,Not Listed,,,,,12/15/1998
31-003-07116-00-00 ,No,Yes,No,7116,Emerson 157,Ebenezer Oil Co. Inc.,Oil Development,Plugged and Abandoned,Richburg,Richburg,Allegany,Scio,Allentown,B,Richburg,7/23/1991,7/14/1969,7/18/1969,7/16/1969,8/11/1969,8/20/1969,7/23/1991,,Pre-1989 Well (N/A),0,Vertical,9,NA,1100,-78.05305,42.09168,-78.05305,42.09168,1080,1080,0,1080,Not Listed,,,,,
31-003-07122-00-00 ,No,Yes,No,7122,Emerson 0156,Ebenezer Oil Co. Inc.,Oil Development,Plugged and Abandoned,Not Applicable,Richburg,Allegany,Scio,Allentown,B,Richburg,7/1/1989,7/21/1969,7/22/1969,7/24/1969,8/17/1969,8/20/1969,7/1/1989,,Pre-1989 Well (N/A),0,Vertical,9,NA,1100,-78.0532,42.09083,-78.0532,42.09083,1127,1127,0,1127,Not Listed,,,,,5/13/1993
31-003-07125-00-00 ,No,Yes,No,7125,Green 275,Plants and Goodwin Inc.,Enhanced Oil Recovery - Injection,Plugged and Abandoned,Not Applicable,Richburg,Allegany,Bolivar,Allentown,D,Richburg,5/20/1999,5/21/1969,6/22/1969,9/9/1969,10/3/1969,10/3/1969,5/20/1999,,Pre-1989 Well (N/A),0,Vertical,9,NA,1400,-78.08421,42.06723,-78.08421,42.06723,1462,1462,0,1462,Not Listed,,,,,6/15/1999
31-003-07126-00-00 ,No,Yes,No,7126,Emerson 161,Ebenezer Oil Co. Inc.,Oil Development,Plugged and Abandoned,Richburg,Richburg,Allegany,Scio,Allentown,B,Richburg,7/12/1991,8/15/1969,8/18/1969,8/18/1969,9/16/1969,9/18/1969,7/12/1991,,Pre-1989 Well (N/A),0,Vertical,9,NA,1090,-78.05283,42.09132,-78.05283,42.09132,1097,1097,0,1097,Not Listed,,,,,5/31/1989
31-003-07128-00-00 ,No,Yes,No,7128,Green 276,Plants and Goodwin Inc.,Enhanced Oil Recovery - Injection,Plugged and Abandoned,Not Applicable,Richburg,Allegany,Bolivar,Allentown,D,Richburg,6/5/2000,5/21/1969,8/18/1969,10/5/1969,11/3/1969,11/5/1969,6/5/2000,,Pre-1989 Well (N/A),0,Vertical,9,NA,1400,-78.08421,42.06662,-78.08421,42.06662,1477,1477,0,1477,Not Listed,,,,,7/7/2000
31-003-07129-00-00 ,No,Yes,Yes,7129,Emerson 163,Ebenezer Oil Co. Inc.,Oil Development,Plugged and Abandoned,Richburg,Richburg,Allegany,Scio,Allentown,B,Richburg,10/5/1990,8/15/1969,8/18/1969,8/21/1969,9/22/1969,9/25/1969,10/5/1990,,Pre-1989 Well (N/A),0,Vertical,9,NA,1110,-78.05283,42.09014,-78.05283,42.09014,1148,1148,0,1148,Oil Development,,,,,7/17/2017
31-003-07130-00-00 ,Yes,Yes,No,7130,Oscar Potter 10,The Richardson Petroleum Corporation,Oil Development,Plugged and Abandoned,Not Applicable,Fulmer Valley,Allegany,Independence,Whitesville,F,Beech Hill-Independence,6/2/2023,8/27/1969,9/3/1969,11/13/1969,1/6/1970,1/6/1970,6/2/2023,,Pre-1989 Well (N/A),1,Vertical,9,NA,2200,-77.76989,42.07874,-77.76989,42.07874,0,0,0,0,Not Listed,,,,,6/6/2023
31-003-07131-00-00 ,Yes,Yes,No,7131,Potter; L 3,Outman Joshua J.,Oil Development,Inactive,Fulmer Valley,Fulmer Valley,Allegany,Independence,Whitesville,F,Beech Hill-Independence,12/31/2023,,1/1/1969,,,,,,Pre-1989 Well (N/A),0,Vertical,9,NA,0,-77.7726,42.08142,-77.7726,42.08142,2049,2049,0,2049,Not Listed,,,,,9/6/2024
31-003-07132-00-00 ,No,Yes,No,7132,Green 277,Plants and Goodwin Inc.,Enhanced Oil Recovery - Injection,Plugged and Abandoned,Not Applicable,Richburg,Allegany,Bolivar,Allentown,D,Richburg,10/3/1997,5/21/1969,9/3/1969,12/6/1969,12/6/1969,12/3/1969,10/3/1997,,Pre-1989 Well (N/A),0,Vertical,9,NA,1400,-78.08421,42.0658,-78.08421,42.0658,1507,1507,0,1507,Not Listed,,,,,11/12/1997
31-003-07133-00-00 ,No,Yes,No,7133,Quintette-Bledsoe 038,The Richardson Petroleum Corporation,Oil Development,Plugged and Abandoned,Not Applicable,Fulmer Valley,Allegany,Independence,Whitesville,F,Beech Hill-Independence,4/14/1992,9/2/1969,9/3/1969,8/30/1969,9/15/1969,9/18/1969,4/14/1992,,Pre-1989 Well (N/A),0,Vertical,9,NA,1275,-77.7534,42.06965,-77.7534,42.06965,1222,1222,0,1222,Not Listed,,,,,1/7/1993
31-003-07151-00-00 ,No,Yes,No,7151,Alma Hill 25-66,K-Arcy Corp.,Oil Development,Plugged and Abandoned,Not Applicable,Richburg,Allegany,Alma,Allentown,I,Richburg,12/30/1985,9/17/1969,9/30/1969,9/17/1969,10/13/1969,10/24/1969,12/30/1985,,Pre-1989 Well (N/A),0,Vertical,9,NA,1200,-78.01392,42.02344,-78.01392,42.02344,0,0,0,0,Not Listed,,,,,6/29/1994
31-003-07152-00-00 ,Yes,Yes,No,7152,Austin-Bayard 24,Wildcat Oil Producer LLC,Oil Development,Active,Not Applicable,Fulmer Valley,Allegany,Independence,Whitesville,F,Beech Hill-Independence,,10/1/1969,10/1/1969,10/1/1969,10/24/1969,10/29/1969,,,Pre-1989 Well (N/A),0,Vertical,9,NA,1275,-77.75777,42.07773,-77.75777,42.07773,1245,1245,0,1245,Not Listed,,,,,10/14/2025
31-003-07153-00-00 ,No,Yes,No,7153,Emerson 151,Ebenezer Oil Co. Inc.,Oil Development,Plugged and Abandoned,Richburg,Richburg,Allegany,Scio,Allentown,B,Richburg,7/3/1991,10/2/1969,10/7/1969,10/2/1969,10/27/1969,10/29/1969,7/3/1991,,Pre-1989 Well (N/A),0,Vertical,9,NA,1100,-78.05195,42.09124,-78.05195,42.09124,1135,1135,0,1135,Not Listed,,,,,
31-003-07157-00-00 ,No,Yes,No,7157,Austin-Bayard 025,The Richardson Petroleum Corporation,Oil Development,Plugged and Abandoned,Not Applicable,Fulmer Valley,Allegany,Independence,Whitesville,F,Beech Hill-Independence,11/5/1992,10/30/1969,11/3/1969,10/31/1969,12/11/1969,12/15/1969,11/5/1992,,Pre-1989 Well (N/A),0,Vertical,9,NA,1250,-77.75787,42.08005,-77.75787,42.08005,1261,1261,0,1261,Not Listed,,,,,1/19/1993
31-003-07158-00-00 ,No,Yes,No,7158,Emerson 153,Ebenezer Oil Co. Inc.,Oil Development,Plugged and Abandoned,Richburg,Richburg,Allegany,Scio,Allentown,B,Richburg,7/2/1991,11/6/1969,11/7/1969,11/7/1969,12/10/1969,12/16/1969,7/2/1991,,Pre-1989 Well (N/A),0,Vertical,9,NA,1160,-78.05143,42.09039,-78.05143,42.09039,1183,1183,0,1183,Not Listed,,,,,
31-003-07159-00-00 ,No,Yes,No,7159,Donald Maybee h-252,Columbia Gas Transmission LLC,Gas Development,Plugged and Abandoned,Oriskany,Oriskany,Allegany,Scio,Wellsville North,D,Gordon Brook,3/15/1978,7/14/1970,1/11/1971,7/18/1970,8/25/1970,8/25/1970,3/15/1978,,Pre-1989 Well (N/A),0,Vertical,9,NA,3850,-77.99419,42.16756,-77.99419,42.16756,3884,3884,0,3884,Not Listed,,,,,11/10/1998
31-003-07164-00-00 ,No,Yes,No,7164,Emerson 0154,Ebenezer Oil Co. Inc.,Enhanced Oil Recovery - Injection,Plugged and Abandoned,Richburg,Richburg,Allegany,Scio,Allentown,B,Richburg,7/7/1989,12/12/1969,12/18/1969,12/18/1969,2/2/1970,2/2/1970,7/7/1989,,Pre-1989 Well (N/A),0,Vertical,9,NA,1150,-78.05169,42.09085,-78.05169,42.09085,1173,1173,0,1173,Not Listed,,,,,2/5/1999
31-003-07165-00-00 ,Yes,Yes,No,7165,Austin-Bayard 26,Klein Oil & Logging,Oil Development,Plugged and Abandoned,Not Applicable,Fulmer Valley,Allegany,Independence,Whitesville,F,Beech Hill-Independence,4/17/1996,12/15/1969,12/18/1969,12/15/1969,5/1/1970,5/4/1970,4/17/1996,,Pre-1989 Well (N/A),0,Vertical,9,NA,1250,-77.75947,42.07899,-77.75947,42.07899,1252,1252,0,1252,Not Listed,,,,,11/10/2025
31-003-07501-00-00 ,Yes,Yes,No,7501,Austin-Bayard 27,Klein Oil & Logging,Oil Development,Plugged and Abandoned,Fulmer Valley,Fulmer Valley,Allegany,Independence,Whitesville,F,Beech Hill-Independence,5/4/2010,2/2/1970,2/9/1970,2/2/1970,5/11/1970,5/15/1970,5/4/2010,,Pre-1989 Well (N/A),0,Vertical,9,NA,1250,-77.76066,42.07779,-77.76066,42.07779,1246,1246,0,1246,Not Listed,,,,,12/27/2011
31-003-07503-00-00 ,Yes,Yes,Yes,7503,Ramsey; A 1,PPP Future Development Inc.,Gas Development,Inactive,Oriskany,Oriskany,Allegany,Scio,Belmont,F,Gordon Brook,5/10/2021,2/6/1970,2/10/1970,2/18/1970,3/30/1970,4/23/1970,,,Pre-1989 Well (N/A),0,Vertical,9,NA,3800,-78.00324,42.17257,-78.00324,42.17257,3849,3849,0,3849,Not Listed,,,,,11/21/2024
31-003-07508-00-00 ,No,Yes,No,7508,Emerson 155,Ebenezer Oil Co. Inc.,Oil Development,Plugged and Abandoned,Richburg,Richburg,Allegany,Scio,Allentown,B,Richburg,7/9/1991,2/9/1970,2/25/1970,2/10/1970,7/7/1970,7/20/1970,7/9/1991,,Pre-1989 Well (N/A),0,Vertical,9,NA,1100,-78.05132,42.08945,-78.05132,42.08945,1206,1206,0,1206,Not Listed,,,,,
31-003-07509-00-00 ,No,Yes,No,7509,Austin-Bayard 028,The Richardson Petroleum Corporation,Enhanced Oil Recovery - Injection,Plugged and Abandoned,Not Applicable,Fulmer Valley,Allegany,Independence,Whitesville,F,Beech Hill-Independence,10/13/1995,2/2/1970,3/5/1970,3/5/1970,4/3/1970,4/8/1970,10/13/1995,,Pre-1989 Well (N/A),0,Vertical,9,NA,1250,-77.75709,42.07845,-77.75709,42.07845,1261,1261,0,1261,Not Listed,,,,,11/17/1995
31-003-07701-00-00 ,No,Yes,No,7701,0174 Emerson,Ebenezer Oil Co. Inc.,Enhanced Oil Recovery - Injection,Plugged and Abandoned,Not Applicable,Richburg,Allegany,Scio,Allentown,B,Richburg,11/7/1989,4/10/1970,4/13/1970,4/14/1970,5/12/1970,5/14/1970,11/7/1989,,Pre-1989 Well (N/A),0,Vertical,9,NA,1020,-78.05293,42.09338,-78.05293,42.09338,1083,1083,0,1083,Not Listed,,,,,12/27/1993
31-003-07741-00-00 ,Yes,Yes,Yes,7741,Green 278,Plants and Goodwin Inc.,Oil Development,Plugged and Abandoned,Not Applicable,Richburg,Allegany,Bolivar,Allentown,D,Richburg,4/17/2013,3/28/1970,5/11/1970,,,7/24/1970,4/17/2013,,Pre-1989 Well (N/A),0,Vertical,9,NA,0,-78.08365,42.06596,-78.08365,42.06596,1460,1460,0,1460,Not Listed,,,,,2/23/2015
31-003-07759-00-00 ,No,Yes,No,7759,York 047,Ebenezer Oil Co. Inc.,Enhanced Oil Recovery - Injection,Plugged and Abandoned,Not Applicable,Upper Devonian,Allegany,Scio,Allentown,B,Richburg,8/2/1988,5/18/1970,5/19/1970,5/19/1970,6/2/1970,6/24/1970,8/2/1988,,Pre-1989 Well (N/A),0,Vertical,9,NA,1230,-78.05985,42.09981,-78.05985,42.09981,1265,1265,0,1265,Not Listed,,,,,12/22/1993
31-003-07760-00-00 ,No,Yes,No,7760,Roberts; James 1,Unknown,Gas Development,Plugged and Abandoned,Oriskany,Oriskany,Allegany,Scio,Belmont,F,Gordon Brook,7/21/1971,9/19/1970,5/20/1970,5/21/1970,7/2/1970,7/10/1970,7/21/1971,,Pre-1989 Well (N/A),0,Vertical,9,NA,3925,-78.0158,42.16825,-78.0158,42.16825,4014,4014,0,4014,Not Listed,,,,,4/12/2021
31-003-07781-00-00 ,Yes,Yes,No,7781,Short 1,Short Frank D.,Gas Development,Plugged and Abandoned,Not Applicable,Waugh & Porter,Allegany,Wellsville,Wellsville South,B,Trapping Brook,4/14/1999,6/17/1970,6/18/1970,6/22/1970,8/5/1970,8/5/1970,4/14/1999,,Pre-1989 Well (N/A),0,Vertical,9,NA,1500,-77.92192,42.09977,-77.92192,42.09977,1500,1500,0,1500,Not Listed,,,,,1/16/2003
31-003-07782-00-00 ,No,Yes,No,7782,Quintette-Bledsoe 042,The Richardson Petroleum Corporation,Oil Development,Plugged and Abandoned,Not Applicable,Fulmer Valley,Allegany,Independence,Whitesville,F,Beech Hill-Independence,8/3/1998,6/24/1970,7/6/1970,,,,8/3/1998,,Pre-1989 Well (N/A),0,Vertical,9,NA,1240,-77.76351,42.0724,-77.76351,42.0724,0,0,0,0,Not Listed,,,,,10/8/1998
31-003-07783-00-00 ,No,Yes,No,7783,Palmer 1,Unknown,Dry Hole,Plugged and Abandoned,Oriskany,Not Applicable,Allegany,Scio,Wellsville North,D,Gordon Brook,7/19/1971,7/14/1970,7/14/1970,7/18/1970,8/18/1970,8/28/1970,7/19/1971,,Pre-1989 Well (N/A),0,Vertical,9,NA,3850,-77.99168,42.17567,-77.99168,42.17567,3884,3884,0,3884,Not Listed,,,,,3/29/1994
31-003-07785-00-00 ,No,Yes,No,7785,Progressive 6,Bruce Ingalls & Son,Oil Development,Plugged and Abandoned,Not Applicable,Richburg,Allegany,Bolivar,Bolivar,E,Richburg,,7/20/1970,7/15/1970,,,,,,Pre-1989 Well (N/A),1,Vertical,9,NA,920,-78.18281,42.06167,-78.18281,42.06167,0,0,0,0,Not Listed,,,,,1/3/1995
31-003-07844-00-00 ,No,Yes,Yes,7844,Porge 1,Quaker State Corp.,Gas Development,Plugged and Abandoned,Oriskany,Oriskany,Allegany,Bolivar,Allentown,E,Ceres,9/23/1971,7/15/1970,7/17/1970,8/3/1970,10/23/1970,10/30/1970,9/23/1971,,Pre-1989 Well (N/A),0,Vertical,9,NA,0,-78.07733,42.04491,-78.07733,42.04491,4790,4790,0,4790,Gas Development,,,,,7/17/2017
31-003-07847-00-00 ,Yes,Yes,No,7847,Quintette-Bledsoe 043,The Richardson Petroleum Corporation,Oil Development,Plugged and Abandoned,Not Applicable,Fulmer Valley,Allegany,Independence,Whitesville,F,Beech Hill-Independence,5/31/2023,7/27/1970,7/27/1970,,,,5/31/2023,,Pre-1989 Well (N/A),1,Vertical,9,NA,1250,-77.76369,42.07103,-77.76369,42.07103,0,0,0,0,Not Listed,,,,,6/6/2023
31-003-07852-00-00 ,No,Yes,No,7852,Vincent 48,Ebenezer Oil Co. Inc.,Oil Development,Plugged and Abandoned,Not Applicable,Richburg,Allegany,Scio,Allentown,B,Richburg,4/20/1992,7/27/1970,8/4/1970,7/29/1970,9/4/1970,9/10/1970,4/20/1992,,Pre-1989 Well (N/A),0,Vertical,9,NA,1400,-78.06261,42.09261,-78.06261,42.09261,1524,1524,0,1524,Not Listed,,,,,12/21/1993
31-003-07945-00-00 ,No,Yes,No,7945,Clark 30 06,The Richardson Petroleum Corporation,Oil Development,Plugged and Abandoned,Fulmer Valley,Fulmer Valley,Allegany,Independence,Whitesville,F,Beech Hill-Independence,1/2/1990,9/11/1970,9/14/1970,9/8/1970,9/25/1970,1/28/1972,1/2/1990,,Pre-1989 Well (N/A),0,Vertical,9,NA,0,-77.7544,42.06795,-77.7544,42.06795,1882,1882,0,1882,Not Listed,,,,,1/13/1993
31-003-07946-00-00 ,No,Yes,No,7946,Lot 92-93 10e,Day James W,Oil Development,Plugged and Abandoned,Not Applicable,Richburg,Allegany,Alma,Allentown,I,Richburg,9/14/2000,9/21/1970,2/21/1970,9/21/1970,10/22/1970,10/28/1970,9/14/2000,,Pre-1989 Well (N/A),0,Vertical,9,NA,1500,-78.00433,42.03643,-78.00433,42.03643,1521,1521,0,1521,Not Listed,,,,,10/5/2000
31-003-07947-00-00 ,No,Yes,No,7947,Krull 1,Middaugh Vincent,Dry Hole,Plugged and Abandoned,Oriskany,Not Applicable,Allegany,Scio,Belmont,H,Not Applicable,11/13/1970,9/30/1970,9/30/1970,10/1/1970,11/6/1970,5/3/1971,11/13/1970,,Pre-1989 Well (N/A),0,Vertical,9,NA,4200,-78.04749,42.16481,-78.04749,42.16481,4177,4177,0,4177,Not Listed,,,,,3/20/1990
31-003-08028-00-00 ,Yes,Yes,No,8028,Austin-Bayard 29,Wildcat Oil Producer LLC,Oil Development,Active,Fulmer Valley,Fulmer Valley,Allegany,Independence,Whitesville,F,Beech Hill-Independence,,11/12/1970,11/16/1970,11/1/1970,11/27/1970,12/1/1970,,,Pre-1989 Well (N/A),0,Vertical,9,NA,1275,-77.759611,42.080629,-77.759611,42.080629,1228,1228,0,1228,Not Listed,,,,,10/14/2025
31-003-08029-00-00 ,Yes,Yes,No,8029,Quinette-Bledsoe 033,The Richardson Petroleum Corporation,Enhanced Oil Recovery - Injection,Inactive,Not Applicable,Fulmer Valley,Allegany,Independence,Whitesville,F,Beech Hill-Independence,,11/13/1970,11/13/1970,,,,,,Pre-1989 Well (N/A),1,Vertical,9,NA,4700,-77.753508,42.074142,-77.753508,42.074142,1170,1170,0,1170,Not Listed,,,,,12/5/2025
31-003-08032-00-00 ,Yes,Yes,No,8032,Austin-Bayard 30,Wildcat Oil Producer LLC,Oil Development,Active,Not Applicable,Fulmer Valley,Allegany,Independence,Whitesville,F,Beech Hill-Independence,,12/15/1970,12/18/1970,12/15/1970,8/20/1971,8/24/1971,,,Pre-1989 Well (N/A),0,Vertical,9,NA,1250,-77.7608,42.07908,-77.7608,42.07908,1240,1240,0,1240,Not Listed,,,,,10/14/2025
31-003-08033-00-00 ,Yes,Yes,No,8033,Quintette Stillman 06,The Richardson Petroleum Corporation,Oil Development,Plugged and Abandoned,Not Applicable,Fulmer Valley,Allegany,Independence,Rexville,D,Beech Hill-Independence,5/31/2023,11/15/1970,12/18/1970,1/10/1978,5/22/1971,5/26/1971,5/31/2023,,Pre-1989 Well (N/A),0,Vertical,9,NA,1200,-77.74839,42.07767,-77.74839,42.07767,1145,1145,0,1145,Not Listed,,,,,6/6/2023
31-003-08034-00-00 ,No,Yes,No,8034,Michael Shea 1-F-196,Felmont Oil Corp.,Dry Hole,Plugged and Abandoned,Not Applicable,Not Applicable,Allegany,Wellsville,Andover,G,Not Applicable,12/8/1970,11/19/1970,11/20/1970,11/27/1970,12/8/1970,12/8/1970,12/8/1970,,Pre-1989 Well (N/A),0,Vertical,9,NA,4700,-77.8709,42.13194,-77.8709,42.13194,4950,4950,0,4950,Not Listed,,,,,11/9/1998
31-003-08035-00-00 ,Yes,Yes,No,8035,Green 279,Plants and Goodwin Inc.,Oil Development,Plugged and Abandoned,Not Applicable,Richburg,Allegany,Bolivar,Allentown,D,Richburg,6/19/2012,,3/28/1970,7/28/1970,8/31/1970,8/31/1970,6/19/2012,,Pre-1989 Well (N/A),0,Vertical,9,NA,1400,-78.08365,42.06679,-78.08365,42.06679,1455,1455,0,1455,Not Listed,,,,,7/26/2012
31-003-08036-00-00 ,Yes,Yes,No,8036,Green 280,Plants and Goodwin Inc.,Oil Development,Plugged and Abandoned,Not Applicable,Richburg,Allegany,Bolivar,Allentown,D,Richburg,4/19/2011,3/28/1970,3/28/1970,9/2/1970,9/22/1970,9/22/1970,4/19/2011,,Pre-1989 Well (N/A),0,Vertical,9,NA,1400,-78.08365,42.06761,-78.08365,42.06761,1434,1434,0,1434,Not Listed,,,,,10/13/2011
31-003-08037-00-00 ,Yes,Yes,No,8037,Green 281,Plants and Goodwin Inc.,Oil Development,Plugged and Abandoned,Not Applicable,Richburg,Allegany,Bolivar,Allentown,D,Richburg,,3/28/1970,3/28/1970,9/28/1970,10/30/1970,10/30/1970,4/30/2018,,Pre-1989 Well (N/A),0,Vertical,9,NA,1400,-78.08365,42.06844,-78.08365,42.06844,1394,1394,0,1394,Not Listed,,,,,8/21/2018
31-003-08038-00-00 ,Yes,Yes,No,8038,Green 282,Plants and Goodwin Inc.,Oil Development,Plugged and Abandoned,Not Applicable,Richburg,Allegany,Bolivar,Allentown,D,Richburg,,3/28/1970,3/28/1970,11/2/1970,12/15/1970,12/15/1970,5/22/2018,,Pre-1989 Well (N/A),0,Vertical,9,NA,0,-78.08365,42.06926,-78.08365,42.06926,1312,1312,0,1312,Not Listed,,,,,8/21/2018
31-003-08043-00-00 ,Yes,Yes,No,8043,Austin-Bayard 31,Klein Oil & Logging,Oil Development,Plugged and Abandoned,Not Applicable,Fulmer Valley,Allegany,Independence,Whitesville,F,Beech Hill-Independence,9/10/2015,1/22/1971,1/22/1971,1/15/1971,4/17/1971,4/22/1971,9/10/2015,,Pre-1989 Well (N/A),0,Vertical,9,NA,1250,-77.75684,42.07773,-77.75684,42.07773,1256,1256,0,1256,Not Listed,,,,,11/18/2015
31-003-08044-00-00 ,Yes,Yes,Yes,8044,Meadowbank 012,C.O.G. Development & Resources Inc.,Enhanced Oil Recovery - Injection,Inactive,Not Applicable,Waugh & Porter,Allegany,Bolivar,Allentown,G,Richburg,,1/27/1971,1/27/1971,1/29/1971,4/25/1971,4/25/1971,,,Pre-1989 Well (N/A),0,Vertical,9,NA,1500,-78.116922,42.035288,-78.116922,42.035288,1478,1478,0,1478,Not Listed,,,,,12/13/2019
31-003-08049-00-00 ,Yes,Yes,No,8049,Austin-Bayard 32,Wildcat Oil Producer LLC,Oil Development,Active,Not Applicable,Fulmer Valley,Allegany,Independence,Whitesville,F,Beech Hill-Independence,,2/19/1971,2/22/1971,2/23/1971,3/25/1971,4/13/1971,,,Pre-1989 Well (N/A),0,Vertical,9,NA,1250,-77.75428,42.07979,-77.75428,42.07979,1245,1245,0,1245,Not Listed,,,,,10/14/2025
31-003-08282-00-00 ,Yes,Yes,No,8282,Wheeler 43 (P43),Simon of Bolivar Enterprises Inc.,Oil Development,Active,Not Applicable,Richburg,Allegany,Bolivar,Bolivar,H,Richburg,,5/24/1971,5/24/1971,5/20/1971,7/26/1971,7/26/1971,,,Pre-1989 Well (N/A),0,Vertical,9,NA,1500,-78.177439,42.003398,-78.177439,42.003398,1562,1562,0,1562,Not Listed,,,,,7/8/2025
31-003-08283-00-00 ,No,Yes,No,8283,Wheeler 44,J. J. Bucher Producing Corporation,Oil Development,Plugged and Abandoned,Not Applicable,Richburg,Allegany,Bolivar,Bolivar,H,Richburg,6/4/1999,5/24/1971,5/24/1971,8/10/1971,9/23/1971,9/23/1971,6/4/1999,,Pre-1989 Well (N/A),0,Vertical,9,NA,1600,-78.17744,42.00456,-78.17744,42.00456,1591,1591,0,1591,Not Listed,,,,,6/15/1999
31-003-08341-00-00 ,Yes,Yes,Yes,8341,1-53/54 Kv,Klein Oil & Logging,Oil Development,Plugged and Abandoned,Not Applicable,Richburg,Allegany,Alma,Allentown,I,Richburg,3/29/2013,6/15/1971,6/18/1971,7/2/1971,8/11/1971,8/11/1971,3/29/2013,,Pre-1989 Well (N/A),0,Vertical,9,NA,1190,-78.02811,42.02159,-78.02811,42.02159,1197,1197,0,1197,Not Listed,,,,,5/29/2013
31-003-08343-00-00 ,No,Yes,No,8343,Green 286,Plants and Goodwin Inc.,Enhanced Oil Recovery - Injection,Plugged and Abandoned,Not Applicable,Richburg,Allegany,Bolivar,Allentown,E,Richburg,3/16/1999,6/22/1971,6/22/1971,7/30/1971,7/26/1971,7/26/1971,3/16/1999,,Pre-1989 Well (N/A),0,Vertical,9,NA,1430,-78.0831,42.06723,-78.0831,42.06723,1396,1396,0,1396,Not Listed,,,,,3/31/1999
31-003-08344-00-00 ,No,Yes,No,8344,Green 287,Plants and Goodwin Inc.,Enhanced Oil Recovery - Injection,Plugged and Abandoned,Not Applicable,Richburg,Allegany,Bolivar,Allentown,E,Richburg,3/18/1999,6/22/1971,6/22/1971,6/27/1971,9/1/1971,9/1/1971,3/18/1999,,Pre-1989 Well (N/A),0,Vertical,9,NA,1440,-78.0831,42.0664,-78.0831,42.0664,1414,1414,0,1414,Not Listed,,,,,3/31/1999
31-003-08345-00-00 ,No,Yes,No,8345,Green 288,Plants and Goodwin Inc.,Enhanced Oil Recovery - Injection,Plugged and Abandoned,Not Applicable,Richburg,Allegany,Bolivar,Allentown,E,Richburg,3/29/1999,6/22/1971,6/22/1971,9/4/1971,10/6/1971,10/6/1971,3/29/1999,,Pre-1989 Well (N/A),0,Vertical,9,NA,1450,-78.0831,42.06558,-78.0831,42.06558,1422,1422,0,1422,Not Listed,,,,,4/15/1999
31-003-08496-00-00 ,No,Yes,No,8496,Green 284,Plants and Goodwin Inc.,Enhanced Oil Recovery - Injection,Plugged and Abandoned,Not Applicable,Richburg,Allegany,Bolivar,Allentown,E,Richburg,4/19/1999,5/12/1971,4/19/1971,5/5/1971,5/26/1971,5/27/1971,4/19/1999,,Pre-1989 Well (N/A),0,Vertical,9,NA,1450,-78.0831,42.06888,-78.0831,42.06888,1320,1320,0,1320,Not Listed,,,,,5/24/1999
31-003-08497-00-00 ,No,Yes,No,8497,Green 285,Plants and Goodwin Inc.,Enhanced Oil Recovery - Injection,Plugged and Abandoned,Not Applicable,Richburg,Allegany,Bolivar,Allentown,E,Richburg,4/7/1999,5/20/1971,4/19/1971,5/20/1971,6/24/1971,6/24/1971,4/7/1999,,Pre-1989 Well (N/A),0,Vertical,9,NA,1450,-78.0831,42.06805,-78.0831,42.06805,1377,1377,0,1377,Not Listed,,,,,4/22/1999
31-003-08498-00-00 ,No,Yes,No,8498,Green 283,Plants and Goodwin Inc.,Enhanced Oil Recovery - Injection,Plugged and Abandoned,Not Applicable,Richburg,Allegany,Bolivar,Allentown,E,Richburg,3/26/1997,4/15/1971,4/15/1971,4/5/1971,5/3/1971,5/3/1971,3/26/1997,,Pre-1989 Well (N/A),0,Vertical,9,NA,1450,-78.0831,42.0697,-78.0831,42.0697,1246,1246,0,1246,Not Listed,,,,,4/10/1997
31-003-08577-00-00 ,No,Yes,No,8577,Emerson 159,Ebenezer Oil Co. Inc.,Oil Development,Plugged and Abandoned,Richburg,Richburg,Allegany,Scio,Allentown,B,Richburg,6/25/1991,6/28/1971,6/29/1971,7/2/1971,8/18/1971,9/1/1971,6/25/1991,,Pre-1989 Well (N/A),0,Vertical,9,NA,1200,-78.05062,42.09151,-78.05062,42.09151,1124,1124,0,1124,Not Listed,,,,,5/31/1989
31-003-08579-00-00 ,Yes,Yes,No,8579,Slade Lot 29 G-23,Sandstone Oil & Gas Development LLC,Oil Development,Inactive,Richburg,Richburg,Allegany,Genesee,Bolivar,D,Richburg,12/31/2024,6/24/1971,7/1/1971,7/1/1971,7/22/1971,7/25/1971,,,Pre-1989 Well (N/A),0,Vertical,9,NA,1200,-78.23946,42.04514,-78.23946,42.04514,1220,1220,0,1220,Not Listed,,,,,7/8/2025
31-003-08609-00-00 ,Yes,Yes,Yes,8609,Slade Lot 29 E-34,Sandstone Oil & Gas Development LLC,Oil Development,Inactive,Richburg,Richburg,Allegany,Genesee,Bolivar,D,Richburg,,7/19/1971,7/22/1971,8/10/1971,8/23/1971,8/26/1971,,,Pre-1989 Well (N/A),0,Vertical,9,NA,1300,-78.23751,42.04583,-78.23751,42.04583,1271,1271,0,1271,Oil Development,,,,,8/15/2023
31-003-08638-00-00 ,No,Yes,No,8638,Ramsey 2,Middaugh Vincent,Dry Hole,Plugged and Abandoned,Oriskany,Not Applicable,Allegany,Amity,Belmont,F,Not Applicable,12/16/1971,8/12/1971,8/13/1971,8/17/1971,11/13/1971,11/13/1971,12/16/1971,,Pre-1989 Well (N/A),0,Vertical,9,NA,4100,-78.01,42.17801,-78.01,42.17801,4081,4081,0,4081,Not Listed,,,,,4/4/1995
31-003-08663-00-00 ,No,Yes,Yes,8663,Martin (Lafever) EC-435,National Fuel Gas Supply Corporation,Storage,Active,Not Applicable,Oriskany,Allegany,Andover,Whitesville,C,East Independence,,8/11/1971,8/17/1971,9/22/1971,10/9/1971,3/15/1972,,,Pre-1989 Well (N/A),1,Vertical,9,NA,4990,-77.76035,42.10882,-77.76035,42.10882,5009,5009,0,5009,Not Listed,,,,,3/28/2019
31-003-08664-00-00 ,No,Yes,No,8664,Dougherty (Crandell) EC-437,National Fuel Gas Supply Corporation,Storage,Active,Not Applicable,Oriskany,Allegany,Andover,Whitesville,C,East Independence,12/31/2009,8/11/1971,8/17/1971,9/3/1971,9/22/1971,3/17/1971,,,Pre-1989 Well (N/A),0,Vertical,9,NA,0,-77.77228,42.10655,-77.77228,42.10655,5045,5045,0,5045,Not Listed,,,,,4/26/2011
31-003-08665-00-00 ,No,Yes,No,8665,Cornelius (Crandell) EC-438,National Fuel Gas Supply Corporation,Storage,Active,Not Applicable,Oriskany,Allegany,Independence,Whitesville,C,East Independence,12/31/2009,8/11/1971,8/17/1971,8/20/1971,,9/3/1971,,,Pre-1989 Well (N/A),0,Vertical,9,NA,0,-77.77084,42.10257,-77.77084,42.10257,4995,4995,0,4995,Not Listed,,,,,4/26/2011
31-003-08860-00-00 ,Yes,Yes,No,8860,Wheeler 45 (W45),Simon of Bolivar Enterprises Inc.,Enhanced Oil Recovery - Injection,Plugged and Abandoned,Richburg,Richburg,Allegany,Bolivar,Bolivar,H,Richburg,7/3/2012,11/9/1971,11/9/1971,10/13/1971,11/20/1971,11/20/1971,7/3/2012,,Pre-1989 Well (N/A),0,Vertical,9,NA,1500,-78.176506,42.006148,-78.176506,42.006148,1439,1439,0,1439,Oil Development,,,,,5/25/2016
31-003-08871-00-00 ,No,Yes,No,8871,Backer 17,Ebenezer Oil Co. Inc.,Oil Development,Plugged and Abandoned,Richburg,Richburg,Allegany,Scio,Allentown,B,Richburg,6/24/1991,11/30/1971,12/1/1971,11/29/1971,3/1/1972,3/3/1972,6/24/1991,,Pre-1989 Well (N/A),0,Vertical,9,NA,1100,-78.04869,42.09273,-78.04869,42.09273,1122,1122,0,1122,Not Listed,,,,,3/22/2000
31-003-08913-00-00 ,Yes,Yes,No,8913,2-53/54 Kv,Klein Oil & Logging,Oil Wildcat,Active,Not Applicable,Richburg,Allegany,Alma,Allentown,I,Richburg,,12/20/1971,12/27/1971,6/7/1972,7/21/1972,8/4/1972,,,Pre-1989 Well (N/A),0,Vertical,9,NA,0,-78.02522,42.023,-78.02522,42.023,1242,1242,0,1242,Not Listed,,,,,12/13/2019
31-003-09107-00-00 ,Yes,Yes,No,9107,Austin 40-6,Wildcat Oil Producer LLC,Oil Development,Active,Not Applicable,Fulmer Valley,Allegany,Independence,Whitesville,F,Beech Hill-Independence,,,2/25/1972,3/6/1972,4/1/1972,4/4/1972,,,Pre-1989 Well (N/A),0,Vertical,9,NA,1250,-77.75775,42.07489,-77.75775,42.07489,1227,1227,0,1227,Not Listed,,,,,10/14/2025
31-003-09194-00-00 ,No,Yes,No,9194,Cartwright Ronald 1,Anderson Oil Co.,Dry Wildcat,Plugged and Abandoned,Oriskany,Not Applicable,Allegany,Allen,Birdsall,D,Not Applicable,6/15/1972,5/1/1972,5/1/1972,6/11/1972,6/16/1972,6/15/1972,6/15/1972,,Pre-1989 Well (N/A),0,Vertical,9,NA,3400,-77.96492,42.43323,-77.96492,42.43323,3412,3412,0,3412,Not Listed,,,,,3/3/1994
31-003-09226-00-00 ,Yes,Yes,No,9226,7-68 Lot 68,Klein Oil & Logging,Oil Extension,Plugged and Abandoned,Richburg,Richburg,Allegany,Alma,Allentown,I,Richburg,4/26/2013,5/11/1972,5/17/1972,5/11/1972,6/7/1972,6/14/1972,4/26/2013,,Pre-1989 Well (N/A),0,Vertical,9,NA,1300,-78.02597,42.02481,-78.02597,42.02481,1319,1319,0,1319,Not Listed,,,,,5/25/2016
31-003-09230-00-00 ,Yes,Yes,No,9230,Quintette-Stillman 11,The Richardson Petroleum Corporation,Oil Development,Plugged and Abandoned,Not Applicable,Fulmer Valley,Allegany,Independence,Whitesville,F,Beech Hill-Independence,7/9/2002,1/4/1973,1/9/1973,1/12/1973,2/24/1973,5/17/1973,7/9/2002,,Pre-1989 Well (N/A),0,Vertical,9,NA,0,-77.75101,42.07625,-77.75101,42.07625,2039,2039,0,2039,Not Listed,,,,,8/2/2002
31-003-09357-00-00 ,No,Yes,No,9357,Horton (Wilson) EC-459,National Fuel Gas Supply Corporation,Storage,Plugged and Abandoned,Not Applicable,Oriskany,Allegany,Willing,Whitesville,D,Beech Hill,,,7/1/1977,7/15/1977,8/29/1977,8/7/1980,10/9/2024,,Pre-1989 Well (N/A),1,Vertical,9,NA,0,-77.84577,42.05012,-77.84577,42.05012,5015,5015,0,5015,Not Listed,,,,,10/10/2024
31-003-09434-00-00 ,Yes,Yes,No,9434,Slade Lot 29 E-23,Sandstone Oil & Gas Development LLC,Oil Development,Inactive,Richburg,Richburg,Allegany,Genesee,Bolivar,D,Richburg,12/31/2024,8/1/1972,8/15/1972,8/1/1972,8/30/1972,8/31/1972,,,Pre-1989 Well (N/A),0,Vertical,9,NA,1350,-78.23967,42.04654,-78.23967,42.04654,1322,1322,0,1322,Oil Development,,,,,7/8/2025
31-003-09461-00-00 ,Yes,Yes,Yes,9461,3-53/68 Kv,Klein Oil & Logging,Oil Wildcat,Plugged and Abandoned,Not Applicable,Richburg,Allegany,Alma,Allentown,I,Richburg,4/19/2013,8/23/1972,8/29/1972,8/30/1972,10/18/1972,10/26/1972,4/19/2013,,Pre-1989 Well (N/A),0,Vertical,9,NA,1250,-78.03323,42.02397,-78.03323,42.02397,1271,1271,0,1271,Not Listed,,,,,5/29/2013
31-003-09492-00-00 ,Yes,Yes,No,9492,Wheeler 46 (P46),Simon of Bolivar Enterprises Inc.,Oil Development,Active,Not Applicable,Richburg,Allegany,Bolivar,Bolivar,H,Richburg,,9/11/1972,9/11/1972,5/8/1972,9/7/1972,9/7/1972,,,Pre-1989 Well (N/A),0,Vertical,9,NA,1300,-78.174462,42.006704,-78.174462,42.006704,1326,1326,0,1326,Not Listed,,,,,7/8/2025
31-003-09519-00-00 ,Yes,Yes,No,9519,A-H Lot 80-P2-80,Francis Root Oil Company,Enhanced Oil Recovery - Injection,Plugged and Abandoned,Not Applicable,Richburg,Allegany,Alma,Wellsville South,G,Richburg,8/23/2005,1/17/1973,1/22/1973,1/19/1973,3/5/1973,5/9/1973,8/23/2005,,Pre-1989 Well (N/A),0,Vertical,9,NA,1400,-77.99639,42.02853,-77.99639,42.02853,1460,1460,0,1460,Not Listed,,,,,11/8/2005
31-003-09574-00-00 ,Yes,Yes,No,9574,4-68 Kv,Klein Oil & Logging,Oil Wildcat,Active,Not Applicable,Richburg,Allegany,Alma,Allentown,I,Richburg,,11/5/1972,11/13/1972,11/8/1972,6/5/1973,6/12/1973,,,Pre-1989 Well (N/A),0,Vertical,9,NA,1270,-78.03142,42.02413,-78.03142,42.02413,1334,1334,0,1334,Not Listed,,,,,4/7/2025
31-003-09615-00-00 ,Yes,Yes,No,9615,33-68 Lot 68,Klein Oil & Logging,Oil Development,Active,Not Applicable,Richburg,Allegany,Alma,Allentown,I,Richburg,,2/9/1973,3/12/1973,2/7/1973,2/26/1973,3/2/1973,,,Pre-1989 Well (N/A),0,Vertical,9,NA,1300,-78.03226,42.02735,-78.03226,42.02735,1435,1435,0,1435,Not Listed,,,,,12/13/2019
31-003-09824-00-00 ,Yes,Yes,No,9824,A-H Lot 80-P5-80,Francis Root Oil Company,Enhanced Oil Recovery - Injection,Plugged and Abandoned,Not Applicable,Richburg,Allegany,Alma,Wellsville South,G,Richburg,6/9/2003,3/17/1973,3/20/1973,3/9/1973,4/17/1973,7/24/1973,6/9/2003,,Pre-1989 Well (N/A),0,Vertical,9,NA,1600,-77.99805,42.03225,-77.99805,42.03225,1609,1609,0,1609,Not Listed,,,,,1/5/2004
31-003-09859-00-00 ,Yes,Yes,No,9859,Austin-Bayard 37,Wildcat Oil Producer LLC,Oil Development,Active,Fulmer Valley,Fulmer Valley,Allegany,Independence,Whitesville,F,Beech Hill-Independence,,4/6/1973,4/9/1973,4/9/1973,4/28/1973,5/2/1973,,,Pre-1989 Well (N/A),0,Vertical,9,NA,1250,-77.75604,42.079723,-77.75604,42.079723,1268,1268,0,1268,Not Listed,,,,,10/14/2025
31-003-09872-00-00 ,No,Yes,No,9872,Shaner (Coast) 1,Arthur Shaner/Pine Oil Co.,Oil Development,Plugged and Abandoned,Richburg,Richburg,Allegany,Genesee,Portville,F,Richburg,6/6/1992,4/2/1973,10/16/1973,6/1/1973,8/15/1973,9/1/1973,6/6/1992,,Pre-1989 Well (N/A),0,Vertical,9,NA,1500,-78.25029,42.05823,-78.25029,42.05823,1473,1473,0,1473,Not Listed,,,,,1/12/1994
31-003-09896-00-00 ,No,Yes,No,9896,Quig Hollow 1,James V. Joyce/DBA Joyce Pipeline Company,Oil Development,Unknown Located,Oriskany,Penny & Fulmer Valley,Allegany,Andover,Andover,I,Andover,6/12/1973,,4/25/1973,5/28/1973,6/8/1973,6/14/1973,,,Pre-1989 Well (N/A),1,Vertical,9,NA,0,-77.75303,42.1399,-77.75303,42.1399,4647,4647,0,4647,Not Listed,,,,,12/20/2019
31-003-10037-00-00 ,Yes,Yes,No,10037,13 Quintette-Stillman,The Richardson Petroleum Corporation,Oil Development,Plugged and Abandoned,Not Applicable,Fulmer Valley,Allegany,Independence,Rexville,D,Beech Hill-Independence,5/31/2023,6/18/1973,6/20/1973,6/25/1973,7/24/1973,7/27/1973,5/31/2023,,Pre-1989 Well (N/A),1,Vertical,9,NA,1225,-77.74999,42.07172,-77.74999,42.07172,1179,1179,0,1179,Not Listed,,,,,11/16/2023
31-003-10038-00-00 ,No,Yes,No,10038,Clark-Norton 16,The Richardson Petroleum Corporation,Oil Development,Plugged and Abandoned,Not Applicable,Fulmer Valley,Allegany,Independence,Whitesville,F,Beech Hill-Independence,5/2/1990,6/18/1973,8/1/1973,8/6/1973,8/28/1973,8/31/1973,5/2/1990,,Pre-1989 Well (N/A),0,Vertical,9,NA,1230,-77.75855,42.0658,-77.75855,42.0658,1244,1244,0,1244,Not Listed,,,,,11/22/1991
31-003-10073-00-00 ,No,Yes,No,10073,0177 Emerson,Ebenezer Oil Co. Inc.,Enhanced Oil Recovery - Injection,Plugged and Abandoned,Not Applicable,Richburg,Allegany,Scio,Allentown,B,Richburg,7/12/1989,7/11/1973,7/13/1973,5/28/1973,6/27/1973,6/29/1973,7/12/1989,,Pre-1989 Well (N/A),0,Vertical,9,NA,1215,-78.05143,42.08922,-78.05143,42.08922,1215,1215,0,1215,Not Listed,,,,,
31-003-10074-00-00 ,No,Yes,No,10074,0166 Emerson,Ebenezer Oil Co. Inc.,Enhanced Oil Recovery - Injection,Plugged and Abandoned,Not Applicable,Richburg,Allegany,Scio,Allentown,B,Richburg,7/15/1989,7/11/1973,7/13/1973,7/5/1973,8/7/1973,8/12/1973,7/15/1989,,Pre-1989 Well (N/A),0,Vertical,9,NA,1225,-78.05141,42.09004,-78.05141,42.09004,1196,1196,0,1196,Not Listed,,,,,
31-003-10075-00-00 ,Yes,Yes,Yes,10075,5-53;68 K-Arcy-Vossl,Klein Oil & Logging,Oil Development,Plugged and Abandoned,Not Applicable,Richburg,Allegany,Alma,Allentown,I,Richburg,4/10/2013,7/10/1973,7/16/1973,7/16/1973,8/31/1973,9/14/1973,4/10/2013,,Pre-1989 Well (N/A),0,Vertical,9,NA,1350,-78.03301,42.02413,-78.03301,42.02413,1375,1375,0,1375,Not Listed,,,,,5/29/2013
31-003-10076-00-00 ,Yes,Yes,No,10076,A-H Lot 80-3,Sam Koehler Enterprises Inc.,Oil Development,Inactive,Not Applicable,Richburg,Allegany,Alma,Wellsville South,G,Richburg,12/31/2023,7/10/1973,7/16/1973,7/27/1973,8/21/1973,8/31/1973,,,Pre-1989 Well (N/A),1,Vertical,9,NA,1700,-77.99709,42.03241,-77.99709,42.03241,1597,1597,0,1597,Not Listed,,,,,9/6/2024
31-003-10077-00-00 ,Yes,Yes,No,10077,A-H Lot 80-P8-80,Francis Root Oil Company,Enhanced Oil Recovery - Injection,Plugged and Abandoned,Richburg,Richburg,Allegany,Alma,Allentown,I,Richburg,12/10/2006,6/14/1973,6/18/1973,7/24/1973,8/17/1973,8/27/1973,12/10/2006,,Pre-1989 Well (N/A),0,Vertical,9,NA,1600,-78.000399,42.028532,-78.000399,42.028532,1560,1560,0,1560,Not Listed,,,,,3/7/2007
31-003-10098-00-00 ,Yes,Yes,No,10098,A-H Lot 80-8,Sam Koehler Enterprises Inc.,Oil Development,Inactive,Not Applicable,Richburg,Allegany,Alma,Allentown,I,Richburg,12/31/2023,7/23/1973,7/27/1973,8/23/1973,9/7/1973,9/18/1973,,,Pre-1989 Well (N/A),1,Vertical,9,NA,1570,-78.00212,42.02862,-78.00212,42.02862,1461,1461,0,1461,Not Listed,,,,,9/6/2024
31-003-10099-00-00 ,Yes,Yes,No,10099,14 Quintette-Stillman,The Richardson Petroleum Corporation,Oil Development,Active,Not Applicable,Fulmer Valley,Allegany,Independence,Whitesville,F,Beech Hill-Independence,,7/26/1973,7/27/1973,7/30/1973,9/8/1973,9/12/1973,,,Pre-1989 Well (N/A),1,Vertical,9,NA,1200,-77.75095,42.07064,-77.75095,42.07064,1135,1135,0,1135,Not Listed,,,,,11/16/2023
31-003-10100-00-00 ,No,Yes,No,10100,Clark-Norton 17,The Richardson Petroleum Corporation,Oil Development,Plugged and Abandoned,Not Applicable,Fulmer Valley,Allegany,Independence,Whitesville,F,Beech Hill-Independence,5/3/1990,7/31/1973,8/1/1973,6/26/1973,7/31/1973,8/3/1973,5/3/1990,,Pre-1989 Well (N/A),0,Vertical,9,NA,1230,-77.75966,42.0658,-77.75966,42.0658,1229,1229,0,1229,Not Listed,,,,,
31-003-10101-00-00 ,Yes,Yes,No,10101,A-H Lot 80-4,Sam Koehler Enterprises Inc.,Oil Development,Active,Not Applicable,Richburg,Allegany,Alma,Wellsville South,G,Richburg,,7/27/1973,8/3/1973,7/30/1973,8/13/1973,8/21/1973,,,Pre-1989 Well (N/A),1,Vertical,9,NA,1600,-77.99873,42.02825,-77.99873,42.02825,1599,1599,0,1599,Not Listed,,,,,4/5/2022
31-003-10102-00-00 ,No,Yes,No,10102,Sherwood 2,Burdick and Schaffner,Oil Development,Plugged and Abandoned,Not Applicable,Richburg,Allegany,Bolivar,Allentown,G,Richburg,9/14/1989,6/22/1973,8/6/1973,8/12/1973,3/10/1974,3/10/1974,9/14/1989,,Pre-1989 Well (N/A),0,Vertical,9,NA,1250,-78.1166,42.01244,-78.1166,42.01244,0,0,0,0,Not Listed,,,,,6/9/1999
31-003-10112-00-00 ,No,Yes,No,10112,Hope,Gearhart Floyd A.,Dry Hole,Plugged and Abandoned,Not Applicable,Not Applicable,Allegany,Rushford,Houghton,G,Rushford,9/15/1976,8/20/1973,8/20/1973,,,8/24/1973,9/15/1976,,Pre-1989 Well (N/A),0,Vertical,9,NA,1200,-78.2407,42.40724,-78.2407,42.40724,1180,1180,0,1180,Not Listed,,,,,6/23/2000
31-003-10117-00-00 ,No,Yes,No,10117,0168 Emerson,Ebenezer Oil Co. Inc.,Enhanced Oil Recovery - Injection,Plugged and Abandoned,Not Applicable,Richburg,Allegany,Scio,Allentown,B,Richburg,8/16/1991,1/30/1974,2/5/1974,2/6/1974,3/1/1974,3/11/1974,8/16/1991,,Pre-1989 Well (N/A),0,Vertical,9,NA,1100,-78.05136,42.09278,-78.05136,42.09278,1075,1075,0,1075,Not Listed,,,,,
31-003-10118-00-00 ,Yes,Yes,No,10118,Forsythe 11,Sam Koehler Enterprises Inc.,Oil Development,Inactive,Not Applicable,Fulmer Valley,Allegany,Independence,Whitesville,F,Beech Hill-Independence,12/31/2023,1/30/1974,2/5/1974,2/4/1974,2/26/1974,3/7/1974,,,Pre-1989 Well (N/A),1,Vertical,9,NA,1260,-77.76315,42.06597,-77.76315,42.06597,1200,1200,0,1200,Not Listed,,,,,9/6/2024
31-003-10142-00-00 ,No,Yes,No,10142,Neff M-2,Ebenezer Oil Co. Inc.,Oil Development,Plugged and Abandoned,Not Applicable,Richburg,Allegany,Scio,Allentown,B,Richburg,10/20/1973,10/26/1973,10/29/1973,,,,10/20/1973,,Pre-1989 Well (N/A),0,Vertical,9,NA,0,-78.05357,42.0955,-78.05357,42.0955,1046,1046,0,1046,Not Listed,,,,,2/5/1999
31-003-10143-00-00 ,Yes,Yes,No,10143,A-H Lot 80-P9-80,Francis Root Oil Company,Enhanced Oil Recovery - Injection,Plugged and Abandoned,Richburg,Richburg,Allegany,Alma,Allentown,I,Richburg,12/18/2006,8/18/1973,8/21/1973,8/30/1973,9/17/1973,9/25/1973,12/18/2006,,Pre-1989 Well (N/A),0,Vertical,9,NA,1500,-78.000961,42.029705,-78.000961,42.029705,1509,1509,0,1509,Not Listed,,,,,3/7/2007
31-003-10144-00-00 ,Yes,Yes,Yes,10144,A-H Lot 80-6,Sam Koehler Enterprises Inc.,Oil Development,Inactive,Not Applicable,Richburg,Allegany,Alma,Wellsville South,G,Richburg,12/31/2023,8/18/1973,8/21/1973,9/7/1973,9/25/1973,10/4/1973,,,Pre-1989 Well (N/A),1,Vertical,9,NA,1600,-77.99974,42.0307,-77.99974,42.0307,1919,1919,0,1919,Not Listed,,,,,9/6/2024
31-003-10184-00-00 ,No,Yes,No,10184,38 Bayard Austin,The Richardson Petroleum Corporation,Oil Development,Plugged and Abandoned,Fulmer Valley,Fulmer Valley,Allegany,Independence,Whitesville,F,Beech Hill-Independence,10/6/1992,9/19/1973,9/20/1973,9/17/1973,10/5/1973,10/9/1973,10/6/1992,,Pre-1989 Well (N/A),0,Vertical,9,NA,1250,-77.758559,42.080578,-77.758559,42.080578,1235,1235,0,1235,Not Listed,,,,,3/16/2010
31-003-10224-00-00 ,Yes,Yes,No,10224,A-H Lot 80-P3-80,Francis Root Oil Company,Enhanced Oil Recovery - Injection,Plugged and Abandoned,Richburg,Richburg,Allegany,Alma,Wellsville South,G,Richburg,12/1/2006,9/11/1973,9/12/1973,8/25/1973,11/21/1973,12/5/1973,12/1/2006,,Pre-1989 Well (N/A),0,Vertical,9,NA,1500,-77.997422,42.029333,-77.997422,42.029333,1474,1474,0,1474,Not Listed,,,,,3/7/2007
31-003-10225-00-00 ,Yes,Yes,No,10225,A-H Lot 80-9,Sam Koehler Enterprises Inc.,Oil Development,Inactive,Not Applicable,Richburg,Allegany,Alma,Allentown,I,Richburg,12/31/2023,9/11/1973,9/12/1973,9/20/1973,10/5/1973,10/19/1973,,,Pre-1989 Well (N/A),1,Vertical,9,NA,1700,-78.00269,42.02987,-78.00269,42.02987,1638,1638,0,1638,Not Listed,,,,,9/6/2024
31-003-10226-00-00 ,Yes,Yes,No,10226,A-H Lot 80-5,Sam Koehler Enterprises Inc.,Oil Development,Active,Not Applicable,Richburg,Allegany,Alma,Wellsville South,G,Richburg,,9/19/1973,9/25/1973,10/8/1973,10/25/1973,11/5/1973,,,Pre-1989 Well (N/A),1,Vertical,9,NA,1700,-77.99921,42.02956,-77.99921,42.02956,1635,1635,0,1635,Not Listed,,,,,4/5/2022
31-003-10235-00-00 ,Yes,Yes,No,10235,A-H Lot 80-P10-80,Francis Root Oil Company,Oil Development,Plugged and Abandoned,Richburg,Richburg,Allegany,Alma,Allentown,I,Richburg,3/31/2007,9/21/1973,10/2/1973,9/27/1973,10/22/1973,10/30/1973,3/31/2007,,Pre-1989 Well (N/A),0,Vertical,9,NA,1500,-78.005224,42.031064,-78.005224,42.031064,1436,1436,0,1436,Not Listed,,,,,4/2/2007
31-003-10248-00-00 ,Yes,Yes,Yes,10248,47 Black,Klein Oil & Logging,Oil Development,Plugged and Abandoned,Not Applicable,Richburg,Allegany,Alma,Allentown,I,Richburg,3/4/2013,6/13/1974,6/14/1974,6/18/1974,7/23/1974,7/23/1974,3/4/2013,,Pre-1989 Well (N/A),0,Vertical,9,NA,1440,-78.027,42.02839,-78.027,42.02839,1433,1433,0,1433,Not Listed,,,,,4/8/2014
31-003-10255-00-00 ,Yes,Yes,No,10255,A-H Lot 80-10,Sam Koehler Enterprises Inc.,Oil Development,Inactive,Not Applicable,Richburg,Allegany,Alma,Allentown,I,Richburg,12/31/2023,10/8/1973,10/18/1973,10/23/1973,11/8/1973,11/21/1973,,,Pre-1989 Well (N/A),1,Vertical,9,NA,1600,-78.0034,42.03099,-78.0034,42.03099,1314,1314,0,1314,Not Listed,,,,,9/6/2024
31-003-10256-00-00 ,Yes,Yes,No,10256,Austin-Bayard 39,Wildcat Oil Producer LLC,Oil Development,Active,Not Applicable,Fulmer Valley,Allegany,Independence,Whitesville,F,Beech Hill-Independence,,10/10/1973,10/18/1973,10/12/1973,11/2/1973,11/6/1973,,,Pre-1989 Well (N/A),1,Vertical,9,NA,1230,-77.75863,42.0778,-77.75863,42.0778,1245,1245,0,1245,Not Listed,,,,,10/14/2025
31-003-10279-00-00 ,No,Yes,No,10279,0164 Emerson,Ebenezer Oil Co. Inc.,Enhanced Oil Recovery - Injection,Plugged and Abandoned,Not Applicable,Richburg,Allegany,Scio,Allentown,B,Richburg,8/2/1989,10/26/1973,10/29/1973,10/30/1973,12/11/1973,12/18/1973,8/2/1989,,Pre-1989 Well (N/A),0,Vertical,9,NA,1175,-78.05136,42.09083,-78.05136,42.09083,1144,1144,0,1144,Not Listed,,,,,
31-003-10291-00-00 ,Yes,Yes,No,10291,A-H Lot 80-7,Sam Koehler Enterprises Inc.,Oil Development,Inactive,Not Applicable,Richburg,Allegany,Alma,Allentown,I,Richburg,,10/25/1973,11/1/1973,11/2/1973,11/30/1973,12/11/1973,,,Pre-1989 Well (N/A),1,Vertical,9,NA,1500,-78.00032,42.03187,-78.00032,42.03187,1472,1472,0,1472,Not Listed,,,,,8/15/2023
31-003-10294-00-00 ,Yes,Yes,No,10294,A-H Lot 80-P4-80,Francis Root Oil Company,Enhanced Oil Recovery - Injection,Plugged and Abandoned,Not Applicable,Richburg,Allegany,Alma,Wellsville South,G,Richburg,12/8/2006,10/25/1973,11/1/1973,12/6/1973,1/15/1974,1/26/1974,12/8/2006,,Pre-1989 Well (N/A),0,Vertical,9,NA,1300,-77.99713,42.03046,-77.99713,42.03046,1545,1545,0,1545,Not Listed,,,,,12/28/2006
31-003-10317-00-00 ,Yes,Yes,No,10317,Blaisdell 1,Diana Pease & Steve Pease Revocable Trust,Gas Development,Active,Not Applicable,Upper Devonian,Allegany,Ward,Andover,D,Alfred,,10/23/1973,11/8/1973,11/8/1973,12/12/1973,12/13/1973,,,Pre-1989 Well (N/A),1,Vertical,9,NA,800,-77.86555,42.2058,-77.86555,42.2058,901,901,0,901,Not Listed,,,,,1/27/2023
31-003-10336-00-00 ,Yes,Yes,No,10336,A-H Lot 80-P14-80,Francis Root Oil Company,Enhanced Oil Recovery - Injection,Plugged and Abandoned,Richburg,Richburg,Allegany,Alma,Allentown,I,Richburg,12/23/2006,11/9/1973,11/13/1973,11/27/1973,12/17/1973,1/27/1973,12/23/2006,,Pre-1989 Well (N/A),0,Vertical,9,NA,1300,-78.004564,42.029956,-78.004564,42.029956,1272,1272,0,1272,Not Listed,,,,,3/7/2007
31-003-10374-00-00 ,Yes,Yes,No,10374,46 Quintette-Bledsoe,The Richardson Petroleum Corporation,Oil Development,Inactive,Not Applicable,Fulmer Valley,Allegany,Independence,Whitesville,F,Beech Hill-Independence,,1/30/1974,2/5/1974,2/6/1974,3/5/1974,3/14/1974,,,Pre-1989 Well (N/A),1,Vertical,9,NA,1250,-77.75553,42.07309,-77.75553,42.07309,1248,1248,0,1248,Not Listed,,,,,1/4/2022
31-003-10376-00-00 ,No,Yes,No,10376,10 Clark 30,The Richardson Petroleum Corporation,Oil Development,Plugged and Abandoned,Not Applicable,Fulmer Valley,Allegany,Independence,Whitesville,F,Beech Hill-Independence,2/3/1990,,6/14/1974,6/15/1974,6/22/1974,8/28/1974,2/3/1990,,Pre-1989 Well (N/A),0,Vertical,9,NA,1275,-77.75654,42.06883,-77.75654,42.06883,1260,1260,0,1260,Not Listed,,,,,
31-003-10383-00-00 ,No,Yes,No,10383,0181 Emerson,Ebenezer Oil Co. Inc.,Enhanced Oil Recovery - Injection,Plugged and Abandoned,Not Applicable,Richburg,Allegany,Scio,Allentown,B,Richburg,11/1/1989,,6/19/1974,,,,11/1/1989,,Pre-1989 Well (N/A),0,Vertical,9,NA,0,-78.05389,42.09307,-78.05389,42.09307,1079,1079,0,1079,Not Listed,,,,,
31-003-10384-00-00 ,Yes,Yes,No,10384,A-H Lot 80-P11-80,Francis Root Oil Company,Enhanced Oil Recovery - Injection,Plugged and Abandoned,Not Applicable,Richburg,Allegany,Alma,Allentown,I,Richburg,12/22/2006,12/6/1973,12/11/1973,12/17/1973,1/3/1974,1/14/1974,12/22/2006,,Pre-1989 Well (N/A),0,Vertical,9,NA,1400,-78.002221,42.032028,-78.002221,42.032028,1368,1368,0,1368,Not Listed,,,,,12/29/2006
31-003-10385-00-00 ,Yes,Yes,No,10385,40 Bayard Austin,The Richardson Petroleum Corporation,Oil Development,Plugged and Abandoned,Not Applicable,Fulmer Valley,Allegany,Independence,Whitesville,F,Beech Hill-Independence,7/16/2002,12/6/1973,12/11/1973,12/6/1973,12/6/1973,12/11/1973,7/16/2002,,Pre-1989 Well (N/A),0,Vertical,9,NA,1250,-77.75698,42.07845,-77.75698,42.07845,1243,1243,0,1243,Not Listed,,,,,1/29/2003
31-003-10392-00-00 ,Yes,Yes,No,10392,41 Bayard Austin,Wildcat Oil Producer LLC,Oil Development,Active,Not Applicable,Fulmer Valley,Allegany,Independence,Whitesville,F,Beech Hill-Independence,,12/14/1973,12/17/1973,12/15/1973,1/15/1974,9/20/1975,,,Pre-1989 Well (N/A),1,Vertical,9,NA,1250,-77.75503,42.07659,-77.75503,42.07659,1301,1301,0,1301,Not Listed,,,,,10/14/2025
31-003-10408-00-00 ,No,Yes,No,10408,0162 Emerson,Ebenezer Oil Co. Inc.,Enhanced Oil Recovery - Injection,Plugged and Abandoned,Not Applicable,Richburg,Allegany,Scio,Allentown,B,Richburg,7/27/1989,12/20/1973,12/28/1973,12/22/1973,1/28/1974,2/1/1974,7/27/1989,,Pre-1989 Well (N/A),0,Vertical,9,NA,1100,-78.05136,42.09179,-78.05136,42.09179,1162,1162,0,1162,Not Listed,,,,,
31-003-10418-00-00 ,Yes,Yes,No,10418,A-H Lot 80-P13-80,Francis Root Oil Company,Enhanced Oil Recovery - Injection,Plugged and Abandoned,Not Applicable,Richburg,Allegany,Alma,Allentown,I,Richburg,3/29/2007,1/2/1974,1/4/1974,1/11/1974,1/25/1974,2/5/1974,3/29/2007,,Pre-1989 Well (N/A),0,Vertical,9,NA,1300,-78.00315,42.02875,-78.00315,42.02875,1341,1341,0,1341,Not Listed,,,,,4/2/2007
31-003-10440-00-00 ,Yes,Yes,No,10440,A-H Lot 80-P16-80,Francis Root Oil Company,Enhanced Oil Recovery - Injection,Plugged and Abandoned,Richburg,Richburg,Allegany,Alma,Allentown,I,Richburg,12/30/2006,1/5/1974,1/9/1974,1/24/1974,2/5/1974,2/16/1974,12/30/2006,,Pre-1989 Well (N/A),0,Vertical,9,NA,1500,-78.005092,42.032951,-78.005092,42.032951,1363,1363,0,1363,Not Listed,,,,,3/7/2007
31-003-10446-00-00 ,Yes,Yes,No,10446,41-68 Lot 68,Klein Oil & Logging,Oil Development,Active,Not Applicable,Richburg,Allegany,Alma,Allentown,I,Richburg,,1/17/1974,1/18/1974,1/28/1974,2/21/1974,3/5/1974,,,Pre-1989 Well (N/A),1,Vertical,9,NA,1400,-78.03321,42.02613,-78.03321,42.02613,1422,1422,0,1422,Not Listed,,,,,12/13/2019
31-003-10447-00-00 ,Yes,Yes,Yes,10447,A-H Lot 80-A1,Sam Koehler Enterprises Inc.,Oil Development,Inactive,Not Applicable,Richburg,Allegany,Alma,Wellsville South,G,Richburg,,1/17/1974,1/18/1974,3/11/1974,3/30/1974,4/12/1974,,,Pre-1989 Well (N/A),1,Vertical,9,NA,1400,-77.99648,42.02909,-77.99648,42.02909,1447,1447,0,1447,Not Listed,,,,,4/5/2022
31-003-10473-00-00 ,Yes,Yes,No,10473,A-H Lot 80-2,Sam Koehler Enterprises Inc.,Oil Development,Active,Not Applicable,Richburg,Allegany,Alma,Wellsville South,G,Richburg,,1/23/1974,1/29/1974,2/5/1974,2/25/1974,3/11/1974,,,Pre-1989 Well (N/A),1,Vertical,9,NA,1400,-77.99648,42.03124,-77.99648,42.03124,1464,1464,0,1464,Not Listed,,,,,4/5/2022
31-003-10474-00-00 ,Yes,Yes,No,10474,A-H Lot 80-P12-80,Francis Root Oil Company,Enhanced Oil Recovery - Injection,Plugged and Abandoned,Not Applicable,Richburg,Allegany,Alma,Allentown,I,Richburg,2/28/2007,1/23/1974,1/29/1974,2/7/1974,2/19/1974,2/26/1974,2/28/2007,,Pre-1989 Well (N/A),0,Vertical,9,NA,1500,-78.00258,42.02752,-78.00258,42.02752,1341,1341,0,1341,Not Listed,,,,,3/19/2007
31-003-10520-00-00 ,Yes,Yes,No,10520,42-68 Lot 68,Klein Oil & Logging,Oil Development,Plugged and Abandoned,Not Applicable,Richburg,Allegany,Alma,Allentown,I,Richburg,6/25/2013,2/15/1974,2/19/1974,3/7/1974,4/5/1974,4/16/1974,6/25/2013,,Pre-1989 Well (N/A),0,Vertical,9,NA,1450,-78.02811,42.02616,-78.02811,42.02616,1300,1300,0,1300,Not Listed,,,,,9/6/2013
31-003-10521-00-00 ,Yes,Yes,No,10521,A-H Lot 80-P1-80,Francis Root Oil Company,Enhanced Oil Recovery - Injection,Plugged and Abandoned,Richburg,Richburg,Allegany,Alma,Wellsville South,G,Richburg,12/6/2006,2/15/1974,2/19/1974,4/11/1974,5/6/1974,5/10/1974,12/6/2006,,Pre-1989 Well (N/A),0,Vertical,9,NA,1500,-77.995636,42.032519,-77.995636,42.032519,1462,1462,0,1462,Not Listed,,,,,3/7/2007
31-003-10522-00-00 ,Yes,Yes,No,10522,A-H Lot 80-P15-80,Francis Root Oil Company,Enhanced Oil Recovery - Injection,Plugged and Abandoned,Richburg,Richburg,Allegany,Alma,Allentown,I,Richburg,1/30/2007,2/15/1974,2/19/1974,2/20/1974,3/6/1974,3/19/1974,1/30/2007,,Pre-1989 Well (N/A),0,Vertical,9,NA,1500,-78.005224,42.031064,-78.005224,42.031064,1297,1297,0,1297,Not Listed,,,,,3/7/2007
31-003-10538-00-00 ,No,Yes,No,10538,Apco 1,Bradley Producing Corp.,Oil Development,Plugged and Abandoned,Not Applicable,Richburg,Allegany,Alma,Wellsville South,G,Ford's Brook,2/9/1974,3/17/1975,3/25/1975,,,,2/9/1974,,Pre-1989 Well (N/A),0,Vertical,9,NA,1450,-77.96414,42.03702,-77.96414,42.03702,1275,1275,0,1275,Not Listed,,,,,12/14/1998
31-003-10551-00-00 ,No,Yes,No,10551,Od Lot 69-023-69,Quaker State Corp.,Oil Development,Plugged and Abandoned,Not Applicable,Richburg,Allegany,Alma,Allentown,I,Richburg,12/3/1986,3/1/1974,3/4/1974,,,,12/3/1986,,Pre-1989 Well (N/A),0,Vertical,9,NA,1450,-78.0399,42.02647,-78.0399,42.02647,1414,1414,0,1414,Not Listed,,,,,12/14/1998
31-003-10568-00-00 ,Yes,Yes,No,10568,A-H Lot 80-1,Sam Koehler Enterprises Inc.,Oil Development,Inactive,Not Applicable,Richburg,Allegany,Alma,Wellsville South,G,Richburg,12/31/2023,3/4/1974,3/15/1974,5/3/1974,5/20/1974,5/30/1974,,,Pre-1989 Well (N/A),1,Vertical,9,NA,1400,-77.99668,42.03022,-77.99668,42.03022,1451,1451,0,1451,Not Listed,,,,,9/6/2024
31-003-10570-00-00 ,Yes,Yes,Yes,10570,A-H Lot 80-11,Sam Koehler Enterprises Inc.,Oil Development,Inactive,Not Applicable,Richburg,Allegany,Alma,Wellsville South,G,Richburg,,3/14/1974,3/15/1974,3/21/1974,4/4/1974,4/18/1974,,,Pre-1989 Well (N/A),1,Vertical,9,NA,1500,-78.004015,42.032193,-78.004015,42.032193,1278,1278,0,1278,Not Listed,,,,,8/15/2023
31-003-10574-00-00 ,No,Yes,No,10574,179 Emerson,Ebenezer Oil Co. Inc.,Oil Development,Plugged and Abandoned,Not Applicable,Richburg,Allegany,Alma,Allentown,B,Richburg,12/6/1990,3/18/1974,3/19/1974,3/21/1974,4/19/1974,4/26/1974,12/6/1990,,Pre-1989 Well (N/A),0,Vertical,9,NA,1100,-78.05202,42.08636,-78.05202,42.08636,1075,1075,0,1075,Not Listed,,,,,3/11/1994
31-003-10575-00-00 ,Yes,Yes,No,10575,Mervine 17,Sam Koehler Enterprises Inc.,Oil Development,Active,Not Applicable,Fulmer Valley,Allegany,Independence,Whitesville,F,Beech Hill-Independence,,3/18/1974,3/19/1974,3/15/1974,4/18/1974,4/23/1974,,,Pre-1989 Well (N/A),1,Vertical,9,NA,1100,-77.76327,42.06319,-77.76327,42.06319,1163,1163,0,1163,Not Listed,,,,,10/16/2020
31-003-10576-00-00 ,Yes,Yes,No,10576,47 Quintette-Bledsoe,The Richardson Petroleum Corporation,Oil Development,Inactive,Not Applicable,Fulmer Valley,Allegany,Independence,Whitesville,F,Beech Hill-Independence,,3/18/1974,3/19/1974,3/20/1974,4/16/1974,4/20/1974,,,Pre-1989 Well (N/A),1,Vertical,9,NA,1250,-77.75442,42.07309,-77.75442,42.07309,1250,1250,0,1250,Not Listed,,,,,1/4/2022
